#,CUSTOM.date [local], CUSTOM.updateTime [local], OSD.flyTime, OSD.flyTime [s], OSD.latitude, OSD.longitude, OSD.height [ft], OSD.heightMax [ft], OSD.vpsHeight [ft], OSD.altitude [ft], OSD.hSpeed [MPH], OSD.hSpeedMax [MPH], OSD.xSpeed [MPH], OSD.xSpeedMax [MPH], OSD.ySpeed [MPH], OSD.ySpeedMax [MPH], OSD.zSpeed [MPH], OSD.zSpeedMax [MPH], OSD.pitch, OSD.roll, OSD.yaw, OSD.yaw [360], OSD.flycState, OSD.flycCommand, OSD.flightAction, OSD.gpsNum, OSD.gpsLevel, OSD.isGPSUsed, OSD.nonGPSCause, OSD.droneType, OSD.isSwaveWork, OSD.waveError, OSD.goHomeStatus, OSD.batteryType, OSD.ctrlDevice, OSD.isOnGround, OSD.isMotorOn, OSD.isMotorBlocked, OSD.motorStartFailedCause, OSD.motorFailReason, OSD.isImuPreheated, OSD.imuInitFailReason, OSD.isAcceletorOverRange, OSD.isBarometerDeadInAir, OSD.isCompassError, OSD.isGoHomeHeightModified, OSD.canIOCWork, OSD.isNotEnoughForce, OSD.isOutOfLimit, OSD.isPropellerCatapult, OSD.isVibrating, OSD.isVisionUsed, OSD.voltageWarning, GIMBAL.mode, GIMBAL.pitch, GIMBAL.roll, GIMBAL.yaw, GIMBAL.yaw [360], GIMBAL.isPitchAtLimit, GIMBAL.isRollAtLimit, GIMBAL.isYawAtLimit, GIMBAL.isStuck, CAMERA.isPhoto, CAMERA.isVideo, CAMERA.filename, CAMERA.sdCardIsInserted, CAMERA.sdCardState, RC.downlinkSignal, RC.uplinkSignal, RC.aileron, RC.elevator, RC.throttle, RC.rudder, RC.mode, RC.goHomeDepressed, RC.recordDepressed, RC.shutterDepressed, RC.playbackDepressed, RC.wheelDepressed, RC.wheelOffset, RC.custom1Depressed, RC.custom2Depressed, RC.custom3Depressed, RC.custom4Depressed, BATTERY.chargeLevel, BATTERY.currentPV [V], BATTERY.currentCapacity [mAh], BATTERY.fullCapacity [mAh], BATTERY.voltage [V], BATTERY.isCellVoltageEstimated, BATTERY.cellVoltage1 [V], BATTERY.cellVoltage2 [V], BATTERY.cellVoltage3 [V], BATTERY.cellVoltage4 [V], BATTERY.maxCellVoltageDeviation, BATTERY.isCellVoltageDeviationHigh, BATTERY.isVoltageLow, BATTERY.current [A], BATTERY.temperature [F], BATTERY.minTemperature [F], BATTERY.maxTemperature [F], BATTERY.usefulTime [s], BATTERY.goHomeTime [s], BATTERY.landTime [s], BATTERY.goHomeBattery, BATTERY.landBattery, BATTERY.safeFlyRadius, BATTERY.volumeConsume, BATTERY.status, BATTERY.goHomeStatus, BATTERY.goHomeCountdown, BATTERY.lowWarning, BATTERY.lowWarningGoHome, BATTERY.seriousLowWarning, BATTERY.seriousLowWarningLanding, BATTERY.timesCharged, MC.failSafeAction, HOME.latitude, HOME.longitude, HOME.distance [ft], HOME.height [ft], HOME.heightLimit [ft], HOME.isHomeRecord, HOME.goHomeMode, HOME.aircraftHeadDirection, HOME.isDynamicHomePointEnabled, HOME.isReachedLimitDistance, HOME.isReachedLimitHeight, HOME.isCompassCeleing, HOME.compassCeleStatus, HOME.isMultipleFlightModeEnabled, HOME.isBeginnerMode, HOME.isIOCEnabled, HOME.iocMode, HOME.goHomeHeight [ft], HOME.courseLockAngle, HOME.forceLandingHeight [ft], HOME.wind, HOME.dataRecorderFileIndex, RECOVER.appType, RECOVER.appVersion, RECOVER.aircraftName, RECOVER.aircraftSerial, RECOVER.cameraSerial, RECOVER.rcSerial, RECOVER.batterySerial, DETAILS.totalTime [s], DETAILS.totalDistance [ft], DETAILS.maxHeight [ft], DETAILS.maxHorizontalSpeed [MPH], DETAILS.maxVerticalSpeed [MPH], DETAILS.photoNum, DETAILS.videoTime [s], DETAILS.aircraftName, DETAILS.aircraftSerial, DETAILS.cameraSerial, DETAILS.rcSerial, DETAILS.batterySerial, DETAILS.appName, DETAILS.appType, DETAILS.appVersion, APPGPS.latitude, APPGPS.longitude, APPGPS.accuracy, APP.message, APP.tip, APP.warning
1,11/20/2018,23:28.7,0m 0.4s,0.4,39.89197407,-105.2622361,0,0,0.3,6402,0,0,0,0,0,0,0,0,4.5,6.1,-45.7,314.3,Starting Motors,Other,Takeoff (RC Assisted),13,4,TRUE,,Mavic 2 Enterprise,TRUE,FALSE,,Smart,RC,TRUE,TRUE,FALSE,,,TRUE,,FALSE,FALSE,FALSE,FALSE,FALSE,FALSE,FALSE,FALSE,FALSE,FALSE,0,Follow Yaw,0,0,-46.1,313.9,FALSE,FALSE,FALSE,FALSE,FALSE,TRUE,,TRUE,Card Too Slow,,,1024,1024,1024,1024,1,FALSE,FALSE,FALSE,FALSE,FALSE,0,FALSE,FALSE,FALSE,FALSE,100,,,,17.254,TRUE,4.314,4.314,4.314,4.314,,FALSE,FALSE,,,,,0,1,0,15,10,5977.7,1532.73,,Idle,0,25,FALSE,10,TRUE,,Go Home,39.89197839,-105.2622411,2.1,6130.5,393.7,TRUE,1,1,FALSE,FALSE,FALSE,FALSE,0,TRUE,FALSE,FALSE,Course Lock,98.4,,16.4,Calm,7,Android, 4.8.0,dronefo...-Mavic 2 Enterprise,276DFAP001K3FQ,0K8HFA801103AV,0VECFAN0072UWQ,161AFAB6360172,207.7,6462.2,50.2,45.7,8.3,0,208,dronefo...-Mavic 2 Enterprise,276DFAP001K3FQ,0K8HFA801103AV,0VECFAN0072UWQ,161AFAB6360172,,Android, 4.8.0,,,,Data Recorder File Index is 7.,,Compass abnormalSolution: 1. Ensure there are no magnets or metal objects near the aircraft. The ground or walls may contain metal. Move away from sources of interference before attempting flight. 2. Calibrate Compass Before Takeoff.
2,11/20/2018,23:28.8,0m 0.5s,0.5,39.89197404,-105.2622361,0,0,0.3,6402,0,0,0,0,0,0,0,0,4.5,6.1,-45.7,314.3,Starting Motors,Other,Takeoff (RC Assisted),13,4,TRUE,,Mavic 2 Enterprise,TRUE,FALSE,,Smart,RC,TRUE,TRUE,FALSE,,,TRUE,,FALSE,FALSE,FALSE,FALSE,FALSE,FALSE,FALSE,FALSE,FALSE,FALSE,0,Follow Yaw,0,0,-46.1,313.9,FALSE,FALSE,FALSE,FALSE,FALSE,TRUE,,TRUE,Card Too Slow,,,1024,1024,1024,1024,1,FALSE,FALSE,FALSE,FALSE,FALSE,0,FALSE,FALSE,FALSE,FALSE,100,,,,17.254,TRUE,4.314,4.314,4.314,4.314,,FALSE,FALSE,,,,,0,1,0,15,10,5977.7,1532.73,,Idle,0,25,FALSE,10,TRUE,,Go Home,39.89197839,-105.2622411,2.1,6130.5,393.7,TRUE,1,1,FALSE,FALSE,FALSE,FALSE,0,TRUE,FALSE,FALSE,Course Lock,98.4,,16.4,Calm,7,Android, 4.8.0,dronefo...-Mavic 2 Enterprise,276DFAP001K3FQ,0K8HFA801103AV,0VECFAN0072UWQ,161AFAB6360172,207.7,6462.2,50.2,45.7,8.3,0,208,dronefo...-Mavic 2 Enterprise,276DFAP001K3FQ,0K8HFA801103AV,0VECFAN0072UWQ,161AFAB6360172,,Android, 4.8.0,,,,,,
3,11/20/2018,23:28.8,0m 0.6s,0.6,39.89197409,-105.2622361,0,0,0.3,6402,0,0,0,0,0,0,0,0,4.5,6.1,-45.7,314.3,Starting Motors,Other,Takeoff (RC Assisted),13,4,TRUE,,Mavic 2 Enterprise,TRUE,FALSE,,Smart,RC,TRUE,TRUE,FALSE,,,TRUE,,FALSE,FALSE,FALSE,FALSE,FALSE,FALSE,FALSE,FALSE,FALSE,FALSE,0,Follow Yaw,0,0,-46.1,313.9,FALSE,FALSE,FALSE,FALSE,FALSE,TRUE,,TRUE,Card Too Slow,,,1024,1024,1024,1024,1,FALSE,FALSE,FALSE,FALSE,FALSE,0,FALSE,FALSE,FALSE,FALSE,100,,,,17.254,TRUE,4.314,4.314,4.314,4.314,,FALSE,FALSE,,,,,0,1,0,15,10,5977.7,1532.73,,Idle,0,25,FALSE,10,TRUE,,Go Home,39.89197839,-105.2622411,2.1,6130.5,393.7,TRUE,1,1,FALSE,FALSE,FALSE,FALSE,0,TRUE,FALSE,FALSE,Course Lock,98.4,,16.4,Calm,7,Android, 4.8.0,dronefo...-Mavic 2 Enterprise,276DFAP001K3FQ,0K8HFA801103AV,0VECFAN0072UWQ,161AFAB6360172,207.7,6462.2,50.2,45.7,8.3,0,208,dronefo...-Mavic 2 Enterprise,276DFAP001K3FQ,0K8HFA801103AV,0VECFAN0072UWQ,161AFAB6360172,,Android, 4.8.0,,,,,,
4,11/20/2018,23:29.0,0m 0.7s,0.7,39.89197407,-105.2622361,0,0,0.3,6402,0,0,0,0,0,0,0,0,4.5,6.1,-45.7,314.3,Starting Motors,Other,Takeoff (RC Assisted),13,4,TRUE,,Mavic 2 Enterprise,TRUE,FALSE,,Smart,RC,TRUE,TRUE,FALSE,,,TRUE,,FALSE,FALSE,FALSE,FALSE,FALSE,FALSE,FALSE,FALSE,FALSE,FALSE,0,Follow Yaw,0,0,-46.1,313.9,FALSE,FALSE,FALSE,FALSE,FALSE,TRUE,,TRUE,Card Too Slow,,,1024,1024,1024,1024,1,FALSE,FALSE,FALSE,FALSE,FALSE,0,FALSE,FALSE,FALSE,FALSE,100,,,,17.254,TRUE,4.314,4.314,4.314,4.314,,FALSE,FALSE,,,,,0,1,0,15,10,5977.7,1532.73,,Idle,0,25,FALSE,10,TRUE,,Go Home,39.89197839,-105.2622411,2.1,6130.5,393.7,TRUE,1,1,FALSE,FALSE,FALSE,FALSE,0,TRUE,FALSE,FALSE,Course Lock,98.4,,16.4,Calm,7,Android, 4.8.0,dronefo...-Mavic 2 Enterprise,276DFAP001K3FQ,0K8HFA801103AV,0VECFAN0072UWQ,161AFAB6360172,207.7,6462.2,50.2,45.7,8.3,0,208,dronefo...-Mavic 2 Enterprise,276DFAP001K3FQ,0K8HFA801103AV,0VECFAN0072UWQ,161AFAB6360172,,Android, 4.8.0,,,,,,
5,11/20/2018,23:29.1,0m 0.8s,0.8,39.89197412,-105.262236,0,0,0.3,6402,1.1,1.1,0,0,0,0,0,0,4.5,6.1,-45.7,314.3,Starting Motors,Other,Takeoff (RC Assisted),13,4,TRUE,,Mavic 2 Enterprise,TRUE,FALSE,,Smart,RC,TRUE,TRUE,FALSE,,,TRUE,,FALSE,FALSE,FALSE,FALSE,FALSE,FALSE,FALSE,FALSE,FALSE,FALSE,0,Follow Yaw,0,0,-46.1,313.9,FALSE,FALSE,FALSE,FALSE,FALSE,TRUE,,TRUE,Card Too Slow,,,1024,1024,1024,1024,1,FALSE,FALSE,FALSE,FALSE,FALSE,0,FALSE,FALSE,FALSE,FALSE,100,,,,17.254,TRUE,4.314,4.314,4.314,4.314,,FALSE,FALSE,,,,,0,1,0,15,10,5977.7,1532.73,,Idle,0,25,FALSE,10,TRUE,,Go Home,39.89197839,-105.2622411,2.1,6130.5,393.7,TRUE,1,1,FALSE,FALSE,FALSE,FALSE,0,TRUE,FALSE,FALSE,Course Lock,98.4,,16.4,Calm,7,Android, 4.8.0,dronefo...-Mavic 2 Enterprise,276DFAP001K3FQ,0K8HFA801103AV,0VECFAN0072UWQ,161AFAB6360172,207.7,6462.2,50.2,45.7,8.3,0,208,dronefo...-Mavic 2 Enterprise,276DFAP001K3FQ,0K8HFA801103AV,0VECFAN0072UWQ,161AFAB6360172,,Android, 4.8.0,,,,,,
6,11/20/2018,23:29.2,0m 0.9s,0.9,39.8919741,-105.2622359,0,0,0.3,6402,0,1.1,0,0,0,0,0,0,4.5,6.1,-45.7,314.3,Starting Motors,Other,Takeoff (RC Assisted),13,4,TRUE,,Mavic 2 Enterprise,TRUE,FALSE,,Smart,RC,TRUE,TRUE,FALSE,,,TRUE,,FALSE,FALSE,FALSE,FALSE,FALSE,FALSE,FALSE,FALSE,FALSE,FALSE,0,Follow Yaw,0,0,-46.1,313.9,FALSE,FALSE,FALSE,FALSE,FALSE,TRUE,,TRUE,Card Too Slow,,,1024,1024,1024,1024,1,FALSE,FALSE,FALSE,FALSE,FALSE,0,FALSE,FALSE,FALSE,FALSE,100,,,,17.254,TRUE,4.314,4.314,4.314,4.314,,FALSE,FALSE,,,,,0,1,0,15,10,5977.7,1532.73,,Idle,0,25,FALSE,10,TRUE,,Go Home,39.89197839,-105.2622411,2.1,6130.5,393.7,TRUE,1,1,FALSE,FALSE,FALSE,FALSE,0,TRUE,FALSE,FALSE,Course Lock,98.4,,16.4,Calm,7,Android, 4.8.0,dronefo...-Mavic 2 Enterprise,276DFAP001K3FQ,0K8HFA801103AV,0VECFAN0072UWQ,161AFAB6360172,207.7,6462.2,50.2,45.7,8.3,0,208,dronefo...-Mavic 2 Enterprise,276DFAP001K3FQ,0K8HFA801103AV,0VECFAN0072UWQ,161AFAB6360172,,Android, 4.8.0,,,,,,
7,11/20/2018,23:29.3,0m 1.0s,1,39.89197398,-105.262236,0,0,0.3,6402,0,1.1,0,0,0,0,0,0,4.5,6.1,-45.7,314.3,Starting Motors,Other,Takeoff (RC Assisted),13,4,TRUE,,Mavic 2 Enterprise,TRUE,FALSE,,Smart,RC,TRUE,TRUE,FALSE,,,TRUE,,FALSE,FALSE,FALSE,FALSE,FALSE,FALSE,FALSE,FALSE,FALSE,FALSE,0,Follow Yaw,0,0,-46.1,313.9,FALSE,FALSE,FALSE,FALSE,FALSE,TRUE,,TRUE,Card Too Slow,,,1024,1024,1024,1024,1,FALSE,FALSE,FALSE,FALSE,FALSE,0,FALSE,FALSE,FALSE,FALSE,100,,,,17.017,FALSE,4.257,4.261,4.25,4.249,0.012,FALSE,FALSE,,,,,0,1,0,15,10,5977.7,1532.73,,Idle,0,25,FALSE,10,TRUE,,Go Home,39.89197839,-105.2622411,2.2,6130.5,393.7,TRUE,1,1,FALSE,FALSE,FALSE,FALSE,0,TRUE,FALSE,FALSE,Course Lock,98.4,,16.4,Calm,7,Android, 4.8.0,dronefo...-Mavic 2 Enterprise,276DFAP001K3FQ,0K8HFA801103AV,0VECFAN0072UWQ,161AFAB6360172,207.7,6462.2,50.2,45.7,8.3,0,208,dronefo...-Mavic 2 Enterprise,276DFAP001K3FQ,0K8HFA801103AV,0VECFAN0072UWQ,161AFAB6360172,,Android, 4.8.0,,,,,,
8,11/20/2018,23:29.4,0m 1.1s,1.1,39.89197396,-105.262236,0,0,0.3,6402,0,1.1,0,0,0,0,0,0,4.3,6,-45.7,314.3,Starting Motors,Other,Takeoff (RC Assisted),13,4,TRUE,,Mavic 2 Enterprise,TRUE,FALSE,,Smart,RC,TRUE,TRUE,FALSE,,,TRUE,,FALSE,FALSE,FALSE,FALSE,FALSE,FALSE,FALSE,FALSE,FALSE,FALSE,0,Follow Yaw,0,0,-46.1,313.9,FALSE,FALSE,FALSE,FALSE,FALSE,TRUE,,TRUE,Card Too Slow,,,1024,1024,1024,1024,1,FALSE,FALSE,FALSE,FALSE,FALSE,0,FALSE,FALSE,FALSE,FALSE,100,,,,17.017,FALSE,4.257,4.261,4.25,4.249,0.012,FALSE,FALSE,,,,,0,1,0,15,10,5977.7,1532.73,,Idle,0,25,FALSE,10,TRUE,,Go Home,39.89197839,-105.2622411,2.2,6130.5,393.7,TRUE,1,1,FALSE,FALSE,FALSE,FALSE,0,TRUE,FALSE,FALSE,Course Lock,98.4,,16.4,Calm,7,Android, 4.8.0,dronefo...-Mavic 2 Enterprise,276DFAP001K3FQ,0K8HFA801103AV,0VECFAN0072UWQ,161AFAB6360172,207.7,6462.2,50.2,45.7,8.3,0,208,dronefo...-Mavic 2 Enterprise,276DFAP001K3FQ,0K8HFA801103AV,0VECFAN0072UWQ,161AFAB6360172,,Android, 4.8.0,,,,,,
9,11/20/2018,23:29.5,0m 1.2s,1.2,39.89197401,-105.2622359,0,0,0.3,6402,0,1.1,0,0,0,0,0,0,4.2,5.9,-45.7,314.3,Manual Takeoff,Other,Takeoff (RC Assisted),13,4,TRUE,,Mavic 2 Enterprise,TRUE,FALSE,,Smart,RC,TRUE,TRUE,FALSE,,,TRUE,,FALSE,FALSE,FALSE,FALSE,FALSE,FALSE,FALSE,FALSE,FALSE,FALSE,0,Follow Yaw,0,0,-46.1,313.9,FALSE,FALSE,FALSE,FALSE,FALSE,TRUE,,TRUE,Card Too Slow,,,1024,1024,1024,1024,1,FALSE,FALSE,FALSE,FALSE,FALSE,0,FALSE,FALSE,FALSE,FALSE,100,,,,17.017,FALSE,4.257,4.261,4.25,4.249,0.012,FALSE,FALSE,,,,,0,1,0,15,10,5977.7,1532.73,,Idle,0,25,FALSE,10,TRUE,,Go Home,39.89197839,-105.2622411,2.2,6130.5,393.7,TRUE,1,1,FALSE,FALSE,FALSE,FALSE,0,TRUE,FALSE,FALSE,Course Lock,98.4,,16.4,Calm,7,Android, 4.8.0,dronefo...-Mavic 2 Enterprise,276DFAP001K3FQ,0K8HFA801103AV,0VECFAN0072UWQ,161AFAB6360172,207.7,6462.2,50.2,45.7,8.3,0,208,dronefo...-Mavic 2 Enterprise,276DFAP001K3FQ,0K8HFA801103AV,0VECFAN0072UWQ,161AFAB6360172,,Android, 4.8.0,,,,,,
10,11/20/2018,23:29.6,0m 1.3s,1.3,39.89197399,-105.2622358,0,0,0.3,6402,1.1,1.1,0,0,0,0,0,0,4.3,6,-45.7,314.3,Manual Takeoff,Other,Takeoff (RC Assisted),13,4,TRUE,,Mavic 2 Enterprise,TRUE,FALSE,,Smart,RC,TRUE,TRUE,FALSE,,,TRUE,,FALSE,FALSE,FALSE,FALSE,FALSE,FALSE,FALSE,FALSE,FALSE,FALSE,0,Follow Yaw,0,0,-46.1,313.9,FALSE,FALSE,FALSE,FALSE,FALSE,TRUE,,TRUE,Card Too Slow,,,1024,1024,1024,1024,1,FALSE,FALSE,FALSE,FALSE,FALSE,0,FALSE,FALSE,FALSE,FALSE,100,,,,17.017,FALSE,4.257,4.261,4.25,4.249,0.012,FALSE,FALSE,,,,,0,1,0,15,10,5977.7,1532.73,,Idle,0,25,FALSE,10,TRUE,,Go Home,39.89197839,-105.2622411,2.2,6130.5,393.7,TRUE,1,1,FALSE,FALSE,FALSE,FALSE,0,TRUE,FALSE,FALSE,Course Lock,98.4,,16.4,Calm,7,Android, 4.8.0,dronefo...-Mavic 2 Enterprise,276DFAP001K3FQ,0K8HFA801103AV,0VECFAN0072UWQ,161AFAB6360172,207.7,6462.2,50.2,45.7,8.3,0,208,dronefo...-Mavic 2 Enterprise,276DFAP001K3FQ,0K8HFA801103AV,0VECFAN0072UWQ,161AFAB6360172,,Android, 4.8.0,,,,,,
11,11/20/2018,23:29.7,0m 1.4s,1.4,39.89197388,-105.2622357,0,0,0.3,6402,0,1.1,0,0,0,0,0,0,4.3,6,-45.7,314.3,Manual Takeoff,Other,Takeoff (RC Assisted),13,4,TRUE,,Mavic 2 Enterprise,TRUE,FALSE,,Smart,RC,TRUE,TRUE,FALSE,,,TRUE,,FALSE,FALSE,FALSE,FALSE,FALSE,FALSE,FALSE,FALSE,FALSE,FALSE,0,Follow Yaw,0,0,-46.1,313.9,FALSE,FALSE,FALSE,FALSE,FALSE,TRUE,,TRUE,Card Too Slow,,,1024,1024,1024,1024,1,FALSE,FALSE,FALSE,FALSE,FALSE,0,FALSE,FALSE,FALSE,FALSE,100,,,,17.088,FALSE,4.257,4.261,4.25,4.249,0.012,FALSE,FALSE,,,,,0,1,0,15,10,6337.8,1625.08,,Idle,0,25,FALSE,10,TRUE,,Go Home,39.89197839,-105.2622411,2.2,6130.5,393.7,TRUE,1,1,FALSE,FALSE,FALSE,FALSE,0,TRUE,FALSE,FALSE,Course Lock,98.4,,16.4,Calm,7,Android, 4.8.0,dronefo...-Mavic 2 Enterprise,276DFAP001K3FQ,0K8HFA801103AV,0VECFAN0072UWQ,161AFAB6360172,207.7,6462.2,50.2,45.7,8.3,0,208,dronefo...-Mavic 2 Enterprise,276DFAP001K3FQ,0K8HFA801103AV,0VECFAN0072UWQ,161AFAB6360172,,Android, 4.8.0,,,,,,
12,11/20/2018,23:29.8,0m 1.5s,1.5,39.89197385,-105.2622357,0,0,0.3,6402,0,1.1,0,0,0,0,0,0,4.4,6,-45.7,314.3,Manual Takeoff,Other,Takeoff (RC Assisted),13,4,TRUE,,Mavic 2 Enterprise,TRUE,FALSE,,Smart,RC,TRUE,TRUE,FALSE,,,TRUE,,FALSE,FALSE,FALSE,FALSE,FALSE,FALSE,FALSE,FALSE,FALSE,FALSE,0,Follow Yaw,0,0,-46.1,313.9,FALSE,FALSE,FALSE,FALSE,FALSE,TRUE,,TRUE,Card Too Slow,,,1024,1024,1024,1024,1,FALSE,FALSE,FALSE,FALSE,FALSE,0,FALSE,FALSE,FALSE,FALSE,100,,,,17.088,FALSE,4.257,4.261,4.25,4.249,0.012,FALSE,FALSE,,,,,0,1,0,15,10,6337.8,1625.08,,Idle,0,25,FALSE,10,TRUE,,Go Home,39.89197839,-105.2622411,2.2,6130.5,393.7,TRUE,1,1,FALSE,FALSE,FALSE,FALSE,0,TRUE,FALSE,FALSE,Course Lock,98.4,,16.4,Calm,7,Android, 4.8.0,dronefo...-Mavic 2 Enterprise,276DFAP001K3FQ,0K8HFA801103AV,0VECFAN0072UWQ,161AFAB6360172,207.7,6462.2,50.2,45.7,8.3,0,208,dronefo...-Mavic 2 Enterprise,276DFAP001K3FQ,0K8HFA801103AV,0VECFAN0072UWQ,161AFAB6360172,,Android, 4.8.0,,,,,,
13,11/20/2018,23:29.9,0m 1.6s,1.6,39.8919739,-105.2622358,0,0,0.3,6402,0,1.1,0,0,0,0,0,0,4.3,6,-45.7,314.3,Manual Takeoff,Other,Takeoff (RC Assisted),13,4,TRUE,,Mavic 2 Enterprise,TRUE,FALSE,,Smart,RC,TRUE,TRUE,FALSE,,,TRUE,,FALSE,FALSE,FALSE,FALSE,FALSE,FALSE,FALSE,FALSE,FALSE,FALSE,0,Follow Yaw,0,0,-46.1,313.9,FALSE,FALSE,FALSE,FALSE,FALSE,TRUE,,TRUE,Card Too Slow,,,1024,1024,1024,1024,1,FALSE,FALSE,FALSE,FALSE,FALSE,0,FALSE,FALSE,FALSE,FALSE,100,,,,17.088,FALSE,4.257,4.261,4.25,4.249,0.012,FALSE,FALSE,,,,,0,1,0,15,10,6337.8,1625.08,,Idle,0,25,FALSE,10,TRUE,,Go Home,39.89197839,-105.2622411,2.2,6130.5,393.7,TRUE,1,1,FALSE,FALSE,FALSE,FALSE,0,TRUE,FALSE,FALSE,Course Lock,98.4,,16.4,Calm,7,Android, 4.8.0,dronefo...-Mavic 2 Enterprise,276DFAP001K3FQ,0K8HFA801103AV,0VECFAN0072UWQ,161AFAB6360172,207.7,6462.2,50.2,45.7,8.3,0,208,dronefo...-Mavic 2 Enterprise,276DFAP001K3FQ,0K8HFA801103AV,0VECFAN0072UWQ,161AFAB6360172,,Android, 4.8.0,,,,,,
14,11/20/2018,23:30.0,0m 1.7s,1.7,39.89197388,-105.2622357,0,0,0.3,6402,0,1.1,0,0,0,0,0,0,4.4,6,-45.7,314.3,Manual Takeoff,Other,Takeoff (RC Assisted),13,4,TRUE,,Mavic 2 Enterprise,TRUE,FALSE,,Smart,RC,TRUE,TRUE,FALSE,,,TRUE,,FALSE,FALSE,FALSE,FALSE,FALSE,FALSE,FALSE,FALSE,FALSE,FALSE,0,Follow Yaw,0,0,-46.1,313.9,FALSE,FALSE,FALSE,FALSE,FALSE,TRUE,,TRUE,Card Too Slow,,,1024,1024,1024,1024,1,FALSE,FALSE,FALSE,FALSE,FALSE,0,FALSE,FALSE,FALSE,FALSE,100,,,,17.088,FALSE,4.257,4.261,4.25,4.249,0.012,FALSE,FALSE,,,,,0,1,0,15,10,6337.8,1625.08,,Idle,0,25,FALSE,10,TRUE,,Go Home,39.89197839,-105.2622411,2.2,6130.5,393.7,TRUE,1,1,FALSE,FALSE,FALSE,FALSE,0,TRUE,FALSE,FALSE,Course Lock,98.4,,16.4,Calm,7,Android, 4.8.0,dronefo...-Mavic 2 Enterprise,276DFAP001K3FQ,0K8HFA801103AV,0VECFAN0072UWQ,161AFAB6360172,207.7,6462.2,50.2,45.7,8.3,0,208,dronefo...-Mavic 2 Enterprise,276DFAP001K3FQ,0K8HFA801103AV,0VECFAN0072UWQ,161AFAB6360172,,Android, 4.8.0,,,,,,
15,11/20/2018,23:30.1,0m 1.8s,1.8,39.89197377,-105.2622356,0,0,0.3,6402,0,1.1,0,0,0,0,0,0,4.4,6,-45.7,314.3,Manual Takeoff,Other,Takeoff (RC Assisted),13,4,TRUE,,Mavic 2 Enterprise,TRUE,FALSE,,Smart,RC,TRUE,TRUE,FALSE,,,TRUE,,FALSE,FALSE,FALSE,FALSE,FALSE,FALSE,FALSE,FALSE,FALSE,FALSE,0,Follow Yaw,0,0,-46.1,313.9,FALSE,FALSE,FALSE,FALSE,FALSE,TRUE,,TRUE,Card Too Slow,,,1024,1024,1516,1024,1,FALSE,FALSE,FALSE,FALSE,FALSE,0,FALSE,FALSE,FALSE,FALSE,100,,,,17.088,FALSE,4.257,4.261,4.25,4.249,0.012,FALSE,FALSE,,,,,0,1,0,15,10,6337.8,1625.08,,Idle,0,25,FALSE,10,TRUE,,Go Home,39.89197839,-105.2622411,2.3,6130.5,393.7,TRUE,1,1,FALSE,FALSE,FALSE,FALSE,0,TRUE,FALSE,FALSE,Course Lock,98.4,,16.4,Calm,7,Android, 4.8.0,dronefo...-Mavic 2 Enterprise,276DFAP001K3FQ,0K8HFA801103AV,0VECFAN0072UWQ,161AFAB6360172,207.7,6462.2,50.2,45.7,8.3,0,208,dronefo...-Mavic 2 Enterprise,276DFAP001K3FQ,0K8HFA801103AV,0VECFAN0072UWQ,161AFAB6360172,,Android, 4.8.0,,,,,,
16,11/20/2018,23:30.2,0m 1.9s,1.9,39.89197375,-105.2622356,0,0,0.3,6402,0,1.1,0,0,0,0,0,0,4.3,6,-45.7,314.3,Manual Takeoff,Other,Takeoff (RC Assisted),13,4,TRUE,,Mavic 2 Enterprise,TRUE,FALSE,,Smart,RC,TRUE,TRUE,FALSE,,,TRUE,,FALSE,FALSE,FALSE,FALSE,FALSE,FALSE,FALSE,FALSE,FALSE,FALSE,0,Follow Yaw,0,0,-46.1,313.9,FALSE,FALSE,FALSE,FALSE,FALSE,TRUE,,TRUE,Card Too Slow,,,1024,1024,1684,1024,1,FALSE,FALSE,FALSE,FALSE,FALSE,0,FALSE,FALSE,FALSE,FALSE,100,,,,17.088,FALSE,4.257,4.261,4.25,4.249,0.012,FALSE,FALSE,,,,,0,1,0,15,10,6337.8,1625.08,,Idle,0,25,FALSE,10,TRUE,,Go Home,39.89197839,-105.2622411,2.3,6130.5,393.7,TRUE,1,1,FALSE,FALSE,FALSE,FALSE,0,TRUE,FALSE,FALSE,Course Lock,98.4,,16.4,Calm,7,Android, 4.8.0,dronefo...-Mavic 2 Enterprise,276DFAP001K3FQ,0K8HFA801103AV,0VECFAN0072UWQ,161AFAB6360172,207.7,6462.2,50.2,45.7,8.3,0,208,dronefo...-Mavic 2 Enterprise,276DFAP001K3FQ,0K8HFA801103AV,0VECFAN0072UWQ,161AFAB6360172,,Android, 4.8.0,,,,,,
17,11/20/2018,23:30.3,0m 2.0s,2,39.89197365,-105.2622355,0,0,0.3,6402,0,1.1,0,0,0,0,0,0,4.3,6,-45.8,314.2,Manual Takeoff,Other,Takeoff (RC Assisted),13,4,TRUE,,Mavic 2 Enterprise,TRUE,FALSE,,Smart,RC,TRUE,TRUE,FALSE,,,TRUE,,FALSE,FALSE,FALSE,FALSE,FALSE,FALSE,FALSE,FALSE,FALSE,FALSE,0,Follow Yaw,0,0,-46.1,313.9,FALSE,FALSE,FALSE,FALSE,FALSE,TRUE,,TRUE,Card Too Slow,,,1024,1024,1684,1024,1,FALSE,FALSE,FALSE,FALSE,FALSE,0,FALSE,FALSE,FALSE,FALSE,100,,,,17.213,FALSE,4.3,4.307,4.304,4.302,0.012,FALSE,FALSE,,,,,0,1,0,15,10,6337.8,1625.08,,Idle,0,25,FALSE,10,TRUE,,Go Home,39.89197839,-105.2622411,2.3,6130.5,393.7,TRUE,1,1,FALSE,FALSE,FALSE,FALSE,0,TRUE,FALSE,FALSE,Course Lock,98.4,,16.4,Calm,7,Android, 4.8.0,dronefo...-Mavic 2 Enterprise,276DFAP001K3FQ,0K8HFA801103AV,0VECFAN0072UWQ,161AFAB6360172,207.7,6462.2,50.2,45.7,8.3,0,208,dronefo...-Mavic 2 Enterprise,276DFAP001K3FQ,0K8HFA801103AV,0VECFAN0072UWQ,161AFAB6360172,,Android, 4.8.0,,,,,,
18,11/20/2018,23:30.4,0m 2.1s,2.1,39.89197362,-105.2622355,0,0,0.3,6402,0,1.1,0,0,0,0,0,0,4.2,5.9,-45.8,314.2,Manual Takeoff,Other,Takeoff (RC Assisted),13,4,TRUE,,Mavic 2 Enterprise,TRUE,FALSE,,Smart,RC,TRUE,TRUE,FALSE,,,TRUE,,FALSE,FALSE,FALSE,FALSE,FALSE,FALSE,FALSE,FALSE,FALSE,FALSE,0,Follow Yaw,0,0,-46.1,313.9,FALSE,FALSE,FALSE,FALSE,FALSE,TRUE,,TRUE,Card Too Slow,,,1024,1024,1301,1024,1,FALSE,FALSE,FALSE,FALSE,FALSE,0,FALSE,FALSE,FALSE,FALSE,100,,,,17.213,FALSE,4.3,4.307,4.304,4.302,0.012,FALSE,FALSE,,,,,0,1,0,15,10,6337.8,1625.08,,Idle,0,25,FALSE,10,TRUE,,Go Home,39.89197839,-105.2622411,2.3,6130.5,393.7,TRUE,1,1,FALSE,FALSE,FALSE,FALSE,0,TRUE,FALSE,FALSE,Course Lock,98.4,,16.4,Calm,7,Android, 4.8.0,dronefo...-Mavic 2 Enterprise,276DFAP001K3FQ,0K8HFA801103AV,0VECFAN0072UWQ,161AFAB6360172,207.7,6462.2,50.2,45.7,8.3,0,208,dronefo...-Mavic 2 Enterprise,276DFAP001K3FQ,0K8HFA801103AV,0VECFAN0072UWQ,161AFAB6360172,,Android, 4.8.0,,,,,,
19,11/20/2018,23:30.5,0m 2.2s,2.2,39.89197353,-105.2622356,0,0,0.3,6402,0,1.1,0,0,0,0,0,0,4,5.9,-45.8,314.2,Manual Takeoff,Other,Takeoff (RC Assisted),13,4,TRUE,,Mavic 2 Enterprise,TRUE,FALSE,,Smart,RC,TRUE,TRUE,FALSE,,,TRUE,,FALSE,FALSE,FALSE,FALSE,FALSE,FALSE,FALSE,FALSE,FALSE,FALSE,0,Follow Yaw,0,0,-46.1,313.9,FALSE,FALSE,FALSE,FALSE,FALSE,TRUE,,TRUE,Card Too Slow,,,1024,1024,1024,1024,1,FALSE,FALSE,FALSE,FALSE,FALSE,0,FALSE,FALSE,FALSE,FALSE,100,,,,17.213,FALSE,4.3,4.307,4.304,4.302,0.012,FALSE,FALSE,,,,,0,1,0,15,10,6337.8,1625.08,,Idle,0,25,FALSE,10,TRUE,,Go Home,39.89197839,-105.2622411,2.4,6130.5,393.7,TRUE,1,1,FALSE,FALSE,FALSE,FALSE,0,TRUE,FALSE,FALSE,Course Lock,98.4,,16.4,Calm,7,Android, 4.8.0,dronefo...-Mavic 2 Enterprise,276DFAP001K3FQ,0K8HFA801103AV,0VECFAN0072UWQ,161AFAB6360172,207.7,6462.2,50.2,45.7,8.3,0,208,dronefo...-Mavic 2 Enterprise,276DFAP001K3FQ,0K8HFA801103AV,0VECFAN0072UWQ,161AFAB6360172,,Android, 4.8.0,,,,,,
20,11/20/2018,23:30.6,0m 2.3s,2.3,39.89197349,-105.2622355,0,0,0.3,6402,0,1.1,0,0,0,0,0,0,4,5.8,-45.9,314.1,Manual Takeoff,Other,Takeoff (RC Assisted),13,4,TRUE,,Mavic 2 Enterprise,TRUE,FALSE,,Smart,RC,TRUE,TRUE,FALSE,,,TRUE,,FALSE,FALSE,FALSE,FALSE,FALSE,FALSE,FALSE,FALSE,FALSE,FALSE,0,Follow Yaw,0,0,-46.1,313.9,FALSE,FALSE,FALSE,FALSE,FALSE,TRUE,,TRUE,Card Too Slow,,,1024,1024,1024,1024,1,FALSE,FALSE,FALSE,FALSE,FALSE,0,FALSE,FALSE,FALSE,FALSE,100,,,,17.213,FALSE,4.3,4.307,4.304,4.302,0.012,FALSE,FALSE,,,,,0,1,0,15,10,6337.8,1625.08,,Idle,0,25,FALSE,10,TRUE,,Go Home,39.89197839,-105.2622411,2.4,6130.5,393.7,TRUE,1,1,FALSE,FALSE,FALSE,FALSE,0,TRUE,FALSE,FALSE,Course Lock,98.4,,16.4,Calm,7,Android, 4.8.0,dronefo...-Mavic 2 Enterprise,276DFAP001K3FQ,0K8HFA801103AV,0VECFAN0072UWQ,161AFAB6360172,207.7,6462.2,50.2,45.7,8.3,0,208,dronefo...-Mavic 2 Enterprise,276DFAP001K3FQ,0K8HFA801103AV,0VECFAN0072UWQ,161AFAB6360172,,Android, 4.8.0,,,,,,
21,11/20/2018,23:30.7,0m 2.4s,2.4,39.89197357,-105.2622354,0,0,0.3,6402,0,1.1,0,0,0,0,0,0,4.1,5.8,-45.9,314.1,Manual Takeoff,Other,Takeoff (RC Assisted),13,4,TRUE,,Mavic 2 Enterprise,TRUE,FALSE,,Smart,RC,TRUE,TRUE,FALSE,,,TRUE,,FALSE,FALSE,FALSE,FALSE,FALSE,FALSE,FALSE,FALSE,FALSE,FALSE,0,Follow Yaw,0,0,-46.1,313.9,FALSE,FALSE,FALSE,FALSE,FALSE,TRUE,,TRUE,Card Too Slow,,,1024,1024,1024,1024,1,FALSE,FALSE,FALSE,FALSE,FALSE,0,FALSE,FALSE,FALSE,FALSE,100,,,,17.173,FALSE,4.3,4.307,4.304,4.302,0.012,FALSE,FALSE,,,,,0,1,0,15,10,7010.7,1797.61,,Idle,0,25,FALSE,10,TRUE,,Go Home,39.89197839,-105.2622411,2.4,6130.5,393.7,TRUE,1,1,FALSE,FALSE,FALSE,FALSE,0,TRUE,FALSE,FALSE,Course Lock,98.4,,16.4,Calm,7,Android, 4.8.0,dronefo...-Mavic 2 Enterprise,276DFAP001K3FQ,0K8HFA801103AV,0VECFAN0072UWQ,161AFAB6360172,207.7,6462.2,50.2,45.7,8.3,0,208,dronefo...-Mavic 2 Enterprise,276DFAP001K3FQ,0K8HFA801103AV,0VECFAN0072UWQ,161AFAB6360172,,Android, 4.8.0,,,,,,
22,11/20/2018,23:30.8,0m 2.5s,2.5,39.89197354,-105.2622354,0,0,0.3,6402,0,1.1,0,0,0,0,0,0,4.2,5.9,-45.9,314.1,Manual Takeoff,Other,Takeoff (RC Assisted),13,4,TRUE,,Mavic 2 Enterprise,TRUE,FALSE,,Smart,RC,TRUE,TRUE,FALSE,,,TRUE,,FALSE,FALSE,FALSE,FALSE,FALSE,FALSE,FALSE,FALSE,FALSE,FALSE,0,Follow Yaw,0,0,-46.1,313.9,FALSE,FALSE,FALSE,FALSE,FALSE,TRUE,,TRUE,Card Too Slow,,,1024,1024,1024,1024,1,FALSE,FALSE,FALSE,FALSE,FALSE,0,FALSE,FALSE,FALSE,FALSE,100,,,,17.173,FALSE,4.3,4.307,4.304,4.302,0.012,FALSE,FALSE,,,,,0,1,0,15,10,7010.7,1797.61,,Idle,0,25,FALSE,10,TRUE,,Go Home,39.89197839,-105.2622411,2.4,6130.5,393.7,TRUE,1,1,FALSE,FALSE,FALSE,FALSE,0,TRUE,FALSE,FALSE,Course Lock,98.4,,16.4,Calm,7,Android, 4.8.0,dronefo...-Mavic 2 Enterprise,276DFAP001K3FQ,0K8HFA801103AV,0VECFAN0072UWQ,161AFAB6360172,207.7,6462.2,50.2,45.7,8.3,0,208,dronefo...-Mavic 2 Enterprise,276DFAP001K3FQ,0K8HFA801103AV,0VECFAN0072UWQ,161AFAB6360172,,Android, 4.8.0,,,,,,
23,11/20/2018,23:30.9,0m 2.6s,2.6,39.89197344,-105.2622355,0,0,0.3,6402,0,1.1,0,0,0,0,0,0,4.3,5.9,-45.9,314.1,Manual Takeoff,Other,Takeoff (RC Assisted),13,4,TRUE,,Mavic 2 Enterprise,TRUE,FALSE,,Smart,RC,TRUE,TRUE,FALSE,,,TRUE,,FALSE,FALSE,FALSE,FALSE,FALSE,FALSE,FALSE,FALSE,FALSE,FALSE,0,Follow Yaw,0,0,-46.1,313.9,FALSE,FALSE,FALSE,FALSE,FALSE,TRUE,,TRUE,Card Too Slow,,,1024,1024,1024,1024,1,FALSE,FALSE,FALSE,FALSE,FALSE,0,FALSE,FALSE,FALSE,FALSE,100,,,,17.173,FALSE,4.3,4.307,4.304,4.302,0.012,FALSE,FALSE,,,,,0,1,0,15,10,7010.7,1797.61,,Idle,0,25,FALSE,10,TRUE,,Go Home,39.89197839,-105.2622411,2.4,6130.5,393.7,TRUE,1,1,FALSE,FALSE,FALSE,FALSE,0,TRUE,FALSE,FALSE,Course Lock,98.4,,16.4,Calm,7,Android, 4.8.0,dronefo...-Mavic 2 Enterprise,276DFAP001K3FQ,0K8HFA801103AV,0VECFAN0072UWQ,161AFAB6360172,207.7,6462.2,50.2,45.7,8.3,0,208,dronefo...-Mavic 2 Enterprise,276DFAP001K3FQ,0K8HFA801103AV,0VECFAN0072UWQ,161AFAB6360172,,Android, 4.8.0,,,,,,
24,11/20/2018,23:31.0,0m 2.7s,2.7,39.8919734,-105.2622354,0,0,0.3,6402,0,1.1,0,0,0,0,0,0,5.6,6,-46.3,313.7,Manual Takeoff,Other,Takeoff (RC Assisted),13,4,TRUE,,Mavic 2 Enterprise,TRUE,FALSE,,Smart,RC,TRUE,TRUE,FALSE,,,TRUE,,FALSE,FALSE,FALSE,FALSE,FALSE,FALSE,FALSE,FALSE,FALSE,FALSE,0,Follow Yaw,0,0,-46.1,313.9,FALSE,FALSE,FALSE,FALSE,FALSE,TRUE,,TRUE,Card Too Slow,,,1024,1024,1024,1024,1,FALSE,FALSE,FALSE,FALSE,FALSE,0,FALSE,FALSE,FALSE,FALSE,100,,,,17.173,FALSE,4.3,4.307,4.304,4.302,0.012,FALSE,FALSE,,,,,0,1,0,15,10,7010.7,1797.61,,Idle,0,25,FALSE,10,TRUE,,Go Home,39.89197839,-105.2622411,2.4,6130.5,393.7,TRUE,1,1,FALSE,FALSE,FALSE,FALSE,0,TRUE,FALSE,FALSE,Course Lock,98.4,,16.4,Calm,7,Android, 4.8.0,dronefo...-Mavic 2 Enterprise,276DFAP001K3FQ,0K8HFA801103AV,0VECFAN0072UWQ,161AFAB6360172,207.7,6462.2,50.2,45.7,8.3,0,208,dronefo...-Mavic 2 Enterprise,276DFAP001K3FQ,0K8HFA801103AV,0VECFAN0072UWQ,161AFAB6360172,,Android, 4.8.0,,,,,,
25,11/20/2018,23:31.1,0m 2.8s,2.8,39.8919733,-105.2622353,0,0,0.3,6402,1.1,1.1,0,0,0,0,0,0,5.7,5.8,-46.6,313.4,Manual Takeoff,Other,Takeoff (RC Assisted),13,4,TRUE,,Mavic 2 Enterprise,TRUE,FALSE,,Smart,RC,TRUE,TRUE,FALSE,,,TRUE,,FALSE,FALSE,FALSE,FALSE,FALSE,FALSE,FALSE,FALSE,FALSE,FALSE,0,Follow Yaw,0,0,-46.1,313.9,FALSE,FALSE,FALSE,FALSE,FALSE,TRUE,,TRUE,Card Too Slow,,,1024,1024,1024,1024,1,FALSE,FALSE,FALSE,FALSE,FALSE,0,FALSE,FALSE,FALSE,FALSE,100,,,,17.173,FALSE,4.3,4.307,4.304,4.302,0.012,FALSE,FALSE,,,,,0,1,0,15,10,7010.7,1797.61,,Idle,0,25,FALSE,10,TRUE,,Go Home,39.89197839,-105.2622411,2.5,6130.5,393.7,TRUE,1,1,FALSE,FALSE,FALSE,FALSE,0,TRUE,FALSE,FALSE,Course Lock,98.4,,16.4,Calm,7,Android, 4.8.0,dronefo...-Mavic 2 Enterprise,276DFAP001K3FQ,0K8HFA801103AV,0VECFAN0072UWQ,161AFAB6360172,207.7,6462.2,50.2,45.7,8.3,0,208,dronefo...-Mavic 2 Enterprise,276DFAP001K3FQ,0K8HFA801103AV,0VECFAN0072UWQ,161AFAB6360172,,Android, 4.8.0,,,,,,
26,11/20/2018,23:31.2,0m 2.9s,2.9,39.89197325,-105.2622353,0,0,0.3,6402,0,1.1,0,0,0,0,0,0,5.8,5.8,-46.7,313.3,Manual Takeoff,Other,Takeoff (RC Assisted),13,4,TRUE,,Mavic 2 Enterprise,TRUE,FALSE,,Smart,RC,TRUE,TRUE,FALSE,,,TRUE,,FALSE,FALSE,FALSE,FALSE,FALSE,FALSE,FALSE,FALSE,FALSE,FALSE,0,Follow Yaw,0,0,-46.1,313.9,FALSE,FALSE,FALSE,FALSE,FALSE,TRUE,,TRUE,Card Too Slow,,,1024,1024,1024,1024,1,FALSE,FALSE,FALSE,FALSE,FALSE,0,FALSE,FALSE,FALSE,FALSE,100,,,,17.173,FALSE,4.3,4.307,4.304,4.302,0.012,FALSE,FALSE,,,,,0,1,0,15,10,7010.7,1797.61,,Idle,0,25,FALSE,10,TRUE,,Go Home,39.89197839,-105.2622411,2.5,6130.5,393.7,TRUE,1,1,FALSE,FALSE,FALSE,FALSE,0,TRUE,FALSE,FALSE,Course Lock,98.4,,16.4,Calm,7,Android, 4.8.0,dronefo...-Mavic 2 Enterprise,276DFAP001K3FQ,0K8HFA801103AV,0VECFAN0072UWQ,161AFAB6360172,207.7,6462.2,50.2,45.7,8.3,0,208,dronefo...-Mavic 2 Enterprise,276DFAP001K3FQ,0K8HFA801103AV,0VECFAN0072UWQ,161AFAB6360172,,Android, 4.8.0,,,,,,
27,11/20/2018,23:31.3,0m 3.0s,3,39.89197334,-105.2622353,0,0,0.3,6402,0,1.1,0,0,0,0,0,0,5.8,5.8,-46.7,313.3,Manual Takeoff,Other,Takeoff (RC Assisted),13,4,TRUE,,Mavic 2 Enterprise,TRUE,FALSE,,Smart,RC,TRUE,TRUE,FALSE,,,TRUE,,FALSE,FALSE,FALSE,FALSE,FALSE,FALSE,FALSE,FALSE,FALSE,FALSE,0,Follow Yaw,0,0,-46.2,313.8,FALSE,FALSE,FALSE,FALSE,FALSE,TRUE,,TRUE,Card Too Slow,,,1024,1024,1024,1024,1,FALSE,FALSE,FALSE,FALSE,FALSE,0,FALSE,FALSE,FALSE,FALSE,100,,,,17.131,FALSE,4.281,4.289,4.28,4.281,0.012,FALSE,FALSE,,,,,0,1,0,15,10,7010.7,1797.61,,Idle,0,25,FALSE,10,TRUE,,Go Home,39.89197839,-105.2622411,2.4,6130.5,393.7,TRUE,1,1,FALSE,FALSE,FALSE,FALSE,0,TRUE,FALSE,FALSE,Course Lock,98.4,,16.4,Calm,7,Android, 4.8.0,dronefo...-Mavic 2 Enterprise,276DFAP001K3FQ,0K8HFA801103AV,0VECFAN0072UWQ,161AFAB6360172,207.7,6462.2,50.2,45.7,8.3,0,208,dronefo...-Mavic 2 Enterprise,276DFAP001K3FQ,0K8HFA801103AV,0VECFAN0072UWQ,161AFAB6360172,,Android, 4.8.0,,,,,,
28,11/20/2018,23:31.4,0m 3.1s,3.1,39.8919733,-105.2622353,0,0,0.3,6402,0,1.1,0,0,0,0,0,0,5.8,5.8,-46.7,313.3,Manual Takeoff,Other,Takeoff (RC Assisted),13,4,TRUE,,Mavic 2 Enterprise,TRUE,FALSE,,Smart,RC,TRUE,TRUE,FALSE,,,TRUE,,FALSE,FALSE,FALSE,FALSE,FALSE,FALSE,FALSE,FALSE,FALSE,FALSE,0,Follow Yaw,0,0,-46.2,313.8,FALSE,FALSE,FALSE,FALSE,FALSE,TRUE,,TRUE,Card Too Slow,,,1024,1024,1024,1024,1,FALSE,FALSE,FALSE,FALSE,FALSE,0,FALSE,FALSE,FALSE,FALSE,100,,,,17.131,FALSE,4.281,4.289,4.28,4.281,0.012,FALSE,FALSE,,,,,0,1,0,15,10,7010.7,1797.61,,Idle,0,25,FALSE,10,TRUE,,Go Home,39.89197839,-105.2622411,2.5,6130.5,393.7,TRUE,1,1,FALSE,FALSE,FALSE,FALSE,0,TRUE,FALSE,FALSE,Course Lock,98.4,,16.4,Calm,7,Android, 4.8.0,dronefo...-Mavic 2 Enterprise,276DFAP001K3FQ,0K8HFA801103AV,0VECFAN0072UWQ,161AFAB6360172,207.7,6462.2,50.2,45.7,8.3,0,208,dronefo...-Mavic 2 Enterprise,276DFAP001K3FQ,0K8HFA801103AV,0VECFAN0072UWQ,161AFAB6360172,,Android, 4.8.0,,,,,,
29,11/20/2018,23:31.5,0m 3.2s,3.2,39.89197325,-105.2622351,0,0,0.3,6402,0,1.1,0,0,0,0,0,0,5.8,5.8,-46.7,313.3,Manual Takeoff,Other,Takeoff (RC Assisted),13,4,TRUE,,Mavic 2 Enterprise,TRUE,FALSE,,Smart,RC,TRUE,TRUE,FALSE,,,TRUE,,FALSE,FALSE,FALSE,FALSE,FALSE,FALSE,FALSE,FALSE,FALSE,FALSE,0,Follow Yaw,0,0,-46.2,313.8,FALSE,FALSE,FALSE,FALSE,FALSE,TRUE,,TRUE,Card Too Slow,,,1024,1024,1024,1024,1,FALSE,FALSE,FALSE,FALSE,FALSE,0,FALSE,FALSE,FALSE,FALSE,100,,,,17.131,FALSE,4.281,4.289,4.28,4.281,0.012,FALSE,FALSE,,,,,0,1,0,15,10,7010.7,1797.61,,Idle,0,25,FALSE,10,TRUE,,Go Home,39.89197839,-105.2622411,2.5,6130.5,393.7,TRUE,1,1,FALSE,FALSE,FALSE,FALSE,0,TRUE,FALSE,FALSE,Course Lock,98.4,,16.4,Calm,7,Android, 4.8.0,dronefo...-Mavic 2 Enterprise,276DFAP001K3FQ,0K8HFA801103AV,0VECFAN0072UWQ,161AFAB6360172,207.7,6462.2,50.2,45.7,8.3,0,208,dronefo...-Mavic 2 Enterprise,276DFAP001K3FQ,0K8HFA801103AV,0VECFAN0072UWQ,161AFAB6360172,,Android, 4.8.0,,,,,,
30,11/20/2018,23:31.6,0m 3.3s,3.3,39.89197322,-105.2622351,0,0,0.3,6402,0,1.1,0,0,0,0,0,0,5.7,5.8,-46.7,313.3,Manual Takeoff,Other,Takeoff (RC Assisted),13,4,TRUE,,Mavic 2 Enterprise,TRUE,FALSE,,Smart,RC,TRUE,TRUE,FALSE,,,TRUE,,FALSE,FALSE,FALSE,FALSE,FALSE,FALSE,FALSE,FALSE,FALSE,FALSE,0,Follow Yaw,0,0,-46.2,313.8,FALSE,FALSE,FALSE,FALSE,FALSE,TRUE,,TRUE,Card Too Slow,,,1024,1024,1024,1024,1,FALSE,FALSE,FALSE,FALSE,FALSE,0,FALSE,FALSE,FALSE,FALSE,100,,,,17.131,FALSE,4.281,4.289,4.28,4.281,0.012,FALSE,FALSE,,,,,0,1,0,15,10,7010.7,1797.61,,Idle,0,25,FALSE,10,TRUE,,Go Home,39.89197839,-105.2622411,2.5,6130.5,393.7,TRUE,1,1,FALSE,FALSE,FALSE,FALSE,0,TRUE,FALSE,FALSE,Course Lock,98.4,,16.4,Calm,7,Android, 4.8.0,dronefo...-Mavic 2 Enterprise,276DFAP001K3FQ,0K8HFA801103AV,0VECFAN0072UWQ,161AFAB6360172,207.7,6462.2,50.2,45.7,8.3,0,208,dronefo...-Mavic 2 Enterprise,276DFAP001K3FQ,0K8HFA801103AV,0VECFAN0072UWQ,161AFAB6360172,,Android, 4.8.0,,,,,,
31,11/20/2018,23:31.7,0m 3.4s,3.4,39.89197314,-105.262235,0,0,0.3,6402,0,1.1,0,0,0,0,0,0,5.7,5.8,-46.7,313.3,Manual Takeoff,Other,Takeoff (RC Assisted),13,4,TRUE,,Mavic 2 Enterprise,TRUE,FALSE,,Smart,RC,TRUE,TRUE,FALSE,,,TRUE,,FALSE,FALSE,FALSE,FALSE,FALSE,FALSE,FALSE,FALSE,FALSE,FALSE,0,Follow Yaw,0,0,-46.2,313.8,FALSE,FALSE,FALSE,FALSE,FALSE,TRUE,,TRUE,Card Too Slow,,,1024,1024,1024,1024,1,FALSE,FALSE,FALSE,FALSE,FALSE,0,FALSE,FALSE,FALSE,FALSE,100,,,,17.145,FALSE,4.281,4.289,4.28,4.281,0.012,FALSE,FALSE,,,,,0,1,0,15,10,7998.6,2050.93,,Idle,0,25,FALSE,10,TRUE,,Go Home,39.89197839,-105.2622411,2.6,6130.5,393.7,TRUE,1,1,FALSE,FALSE,FALSE,FALSE,0,TRUE,FALSE,FALSE,Course Lock,98.4,,16.4,Calm,7,Android, 4.8.0,dronefo...-Mavic 2 Enterprise,276DFAP001K3FQ,0K8HFA801103AV,0VECFAN0072UWQ,161AFAB6360172,207.7,6462.2,50.2,45.7,8.3,0,208,dronefo...-Mavic 2 Enterprise,276DFAP001K3FQ,0K8HFA801103AV,0VECFAN0072UWQ,161AFAB6360172,,Android, 4.8.0,,,,,,
32,11/20/2018,23:31.8,0m 3.5s,3.5,39.89197311,-105.262235,0,0,0.3,6402,0,1.1,0,0,0,0,0,0,5.8,5.8,-46.7,313.3,Manual Takeoff,Other,Takeoff (RC Assisted),13,4,TRUE,,Mavic 2 Enterprise,TRUE,FALSE,,Smart,RC,TRUE,TRUE,FALSE,,,TRUE,,FALSE,FALSE,FALSE,FALSE,FALSE,FALSE,FALSE,FALSE,FALSE,FALSE,0,Follow Yaw,0,0,-46.2,313.8,FALSE,FALSE,FALSE,FALSE,FALSE,TRUE,,TRUE,Card Too Slow,,,1024,1024,1024,1024,1,FALSE,FALSE,FALSE,FALSE,FALSE,0,FALSE,FALSE,FALSE,FALSE,100,,,,17.145,FALSE,4.281,4.289,4.28,4.281,0.012,FALSE,FALSE,,,,,0,1,0,15,10,7998.6,2050.93,,Idle,0,25,FALSE,10,TRUE,,Go Home,39.89197839,-105.2622411,2.6,6130.5,393.7,TRUE,1,1,FALSE,FALSE,FALSE,FALSE,0,TRUE,FALSE,FALSE,Course Lock,98.4,,16.4,Calm,7,Android, 4.8.0,dronefo...-Mavic 2 Enterprise,276DFAP001K3FQ,0K8HFA801103AV,0VECFAN0072UWQ,161AFAB6360172,207.7,6462.2,50.2,45.7,8.3,0,208,dronefo...-Mavic 2 Enterprise,276DFAP001K3FQ,0K8HFA801103AV,0VECFAN0072UWQ,161AFAB6360172,,Android, 4.8.0,,,,,,
33,11/20/2018,23:31.8,0m 3.6s,3.6,39.89197319,-105.2622349,0,0,0.3,6402,0,1.1,0,0,0,0,0,0,5.8,5.8,-46.7,313.3,Manual Takeoff,Other,Takeoff (RC Assisted),13,4,TRUE,,Mavic 2 Enterprise,TRUE,FALSE,,Smart,RC,TRUE,TRUE,FALSE,,,TRUE,,FALSE,FALSE,FALSE,FALSE,FALSE,FALSE,FALSE,FALSE,FALSE,FALSE,0,Follow Yaw,0,0,-46.2,313.8,FALSE,FALSE,FALSE,FALSE,FALSE,TRUE,,TRUE,Card Too Slow,,,1024,1024,1024,1024,1,FALSE,FALSE,FALSE,FALSE,FALSE,0,FALSE,FALSE,FALSE,FALSE,100,,,,17.145,FALSE,4.281,4.289,4.28,4.281,0.012,FALSE,FALSE,,,,,0,1,0,15,10,7998.6,2050.93,,Idle,0,25,FALSE,10,TRUE,,Go Home,39.89197839,-105.2622411,2.5,6130.5,393.7,TRUE,1,1,FALSE,FALSE,FALSE,FALSE,0,TRUE,FALSE,FALSE,Course Lock,98.4,,16.4,Calm,7,Android, 4.8.0,dronefo...-Mavic 2 Enterprise,276DFAP001K3FQ,0K8HFA801103AV,0VECFAN0072UWQ,161AFAB6360172,207.7,6462.2,50.2,45.7,8.3,0,208,dronefo...-Mavic 2 Enterprise,276DFAP001K3FQ,0K8HFA801103AV,0VECFAN0072UWQ,161AFAB6360172,,Android, 4.8.0,,,,,,
34,11/20/2018,23:32.0,0m 3.7s,3.7,39.89197316,-105.2622349,0,0,0.3,6402,0,1.1,0,0,0,0,0,0,5.8,5.8,-46.7,313.3,Manual Takeoff,Other,Takeoff (RC Assisted),13,4,TRUE,,Mavic 2 Enterprise,TRUE,FALSE,,Smart,RC,TRUE,TRUE,FALSE,,,TRUE,,FALSE,FALSE,FALSE,FALSE,FALSE,FALSE,FALSE,FALSE,FALSE,FALSE,0,Follow Yaw,0,0,-46.2,313.8,FALSE,FALSE,FALSE,FALSE,FALSE,TRUE,,TRUE,Card Too Slow,,,1024,1024,1024,1024,1,FALSE,FALSE,FALSE,FALSE,FALSE,0,FALSE,FALSE,FALSE,FALSE,100,,,,17.145,FALSE,4.281,4.289,4.28,4.281,0.012,FALSE,FALSE,,,,,0,1,0,15,10,7998.6,2050.93,,Idle,0,25,FALSE,10,TRUE,,Go Home,39.89197839,-105.2622411,2.6,6130.5,393.7,TRUE,1,1,FALSE,FALSE,FALSE,FALSE,0,TRUE,FALSE,FALSE,Course Lock,98.4,,16.4,Calm,7,Android, 4.8.0,dronefo...-Mavic 2 Enterprise,276DFAP001K3FQ,0K8HFA801103AV,0VECFAN0072UWQ,161AFAB6360172,207.7,6462.2,50.2,45.7,8.3,0,208,dronefo...-Mavic 2 Enterprise,276DFAP001K3FQ,0K8HFA801103AV,0VECFAN0072UWQ,161AFAB6360172,,Android, 4.8.0,,,,,,
35,11/20/2018,23:32.0,0m 3.8s,3.8,39.89197322,-105.2622349,0,0,0.3,6402,0,1.1,0,0,0,0,0,0,5.8,5.8,-46.7,313.3,Manual Takeoff,Other,Takeoff (RC Assisted),13,4,TRUE,,Mavic 2 Enterprise,TRUE,FALSE,,Smart,RC,TRUE,TRUE,FALSE,,,TRUE,,FALSE,FALSE,FALSE,FALSE,FALSE,FALSE,FALSE,FALSE,FALSE,FALSE,0,Follow Yaw,0,0,-46.3,313.7,FALSE,FALSE,FALSE,FALSE,FALSE,TRUE,,TRUE,Card Too Slow,,,1024,1024,1024,1024,1,FALSE,FALSE,FALSE,FALSE,FALSE,0,FALSE,FALSE,FALSE,FALSE,100,,,,17.145,FALSE,4.281,4.289,4.28,4.281,0.012,FALSE,FALSE,,,,,0,1,0,15,10,7998.6,2050.93,,Idle,0,25,FALSE,10,TRUE,,Go Home,39.89197839,-105.2622411,2.6,6130.5,393.7,TRUE,1,1,FALSE,FALSE,FALSE,FALSE,0,TRUE,FALSE,FALSE,Course Lock,98.4,,16.4,Calm,7,Android, 4.8.0,dronefo...-Mavic 2 Enterprise,276DFAP001K3FQ,0K8HFA801103AV,0VECFAN0072UWQ,161AFAB6360172,207.7,6462.2,50.2,45.7,8.3,0,208,dronefo...-Mavic 2 Enterprise,276DFAP001K3FQ,0K8HFA801103AV,0VECFAN0072UWQ,161AFAB6360172,,Android, 4.8.0,,,,,,
36,11/20/2018,23:32.1,0m 3.9s,3.9,39.89197321,-105.2622349,0,0,0.3,6402,0,1.1,0,0,0,0,0,0,5.8,5.8,-46.7,313.3,Manual Takeoff,Other,Takeoff (RC Assisted),13,4,TRUE,,Mavic 2 Enterprise,TRUE,FALSE,,Smart,RC,TRUE,TRUE,FALSE,,,TRUE,,FALSE,FALSE,FALSE,FALSE,FALSE,FALSE,FALSE,FALSE,FALSE,FALSE,0,Follow Yaw,0,0,-46.3,313.7,FALSE,FALSE,FALSE,FALSE,FALSE,TRUE,,TRUE,Card Too Slow,,,1024,1024,1024,1024,1,FALSE,FALSE,FALSE,FALSE,FALSE,0,FALSE,FALSE,FALSE,FALSE,100,,,,17.145,FALSE,4.281,4.289,4.28,4.281,0.012,FALSE,FALSE,,,,,0,1,0,15,10,7998.6,2050.93,,Idle,0,25,FALSE,10,TRUE,,Go Home,39.89197839,-105.2622411,2.6,6130.5,393.7,TRUE,1,1,FALSE,FALSE,FALSE,FALSE,0,TRUE,FALSE,FALSE,Course Lock,98.4,,16.4,Calm,7,Android, 4.8.0,dronefo...-Mavic 2 Enterprise,276DFAP001K3FQ,0K8HFA801103AV,0VECFAN0072UWQ,161AFAB6360172,207.7,6462.2,50.2,45.7,8.3,0,208,dronefo...-Mavic 2 Enterprise,276DFAP001K3FQ,0K8HFA801103AV,0VECFAN0072UWQ,161AFAB6360172,,Android, 4.8.0,,,,,,
37,11/20/2018,23:32.3,0m 4.0s,4,39.8919731,-105.2622348,0,0,0.3,6402,0,1.1,0,0,0,0,0,0,5.8,5.7,-46.7,313.3,Manual Takeoff,Other,Takeoff (RC Assisted),13,4,TRUE,,Mavic 2 Enterprise,TRUE,FALSE,,Smart,RC,TRUE,TRUE,FALSE,,,TRUE,,FALSE,FALSE,FALSE,FALSE,FALSE,FALSE,FALSE,FALSE,FALSE,FALSE,0,Follow Yaw,0,0,-46.3,313.7,FALSE,FALSE,FALSE,FALSE,FALSE,TRUE,,TRUE,Card Too Slow,,,1024,1024,1024,1024,1,FALSE,FALSE,FALSE,FALSE,FALSE,0,FALSE,FALSE,FALSE,FALSE,100,,,,17.227,FALSE,4.308,4.314,4.304,4.301,0.013,FALSE,FALSE,,,,,0,1,0,15,10,7998.6,2050.93,,Idle,0,25,FALSE,10,TRUE,,Go Home,39.89197839,-105.2622411,2.6,6130.5,393.7,TRUE,1,1,FALSE,FALSE,FALSE,FALSE,0,TRUE,FALSE,FALSE,Course Lock,98.4,,16.4,Calm,7,Android, 4.8.0,dronefo...-Mavic 2 Enterprise,276DFAP001K3FQ,0K8HFA801103AV,0VECFAN0072UWQ,161AFAB6360172,207.7,6462.2,50.2,45.7,8.3,0,208,dronefo...-Mavic 2 Enterprise,276DFAP001K3FQ,0K8HFA801103AV,0VECFAN0072UWQ,161AFAB6360172,,Android, 4.8.0,,,,,,
38,11/20/2018,23:32.3,0m 4.1s,4.1,39.89197308,-105.2622348,0,0,0.3,6402,0,1.1,0,0,0,0,0,0,5.8,5.8,-46.7,313.3,Manual Takeoff,Other,Takeoff (RC Assisted),13,4,TRUE,,Mavic 2 Enterprise,TRUE,FALSE,,Smart,RC,TRUE,TRUE,FALSE,,,TRUE,,FALSE,FALSE,FALSE,FALSE,FALSE,FALSE,FALSE,FALSE,FALSE,FALSE,0,Follow Yaw,0,0,-46.3,313.7,FALSE,FALSE,FALSE,FALSE,FALSE,TRUE,,TRUE,Card Too Slow,,,1024,1024,1024,1024,1,FALSE,FALSE,FALSE,FALSE,FALSE,0,FALSE,FALSE,FALSE,FALSE,100,,,,17.227,FALSE,4.308,4.314,4.304,4.301,0.013,FALSE,FALSE,,,,,0,1,0,15,10,7998.6,2050.93,,Idle,0,25,FALSE,10,TRUE,,Go Home,39.89197839,-105.2622411,2.6,6130.5,393.7,TRUE,1,1,FALSE,FALSE,FALSE,FALSE,0,TRUE,FALSE,FALSE,Course Lock,98.4,,16.4,Calm,7,Android, 4.8.0,dronefo...-Mavic 2 Enterprise,276DFAP001K3FQ,0K8HFA801103AV,0VECFAN0072UWQ,161AFAB6360172,207.7,6462.2,50.2,45.7,8.3,0,208,dronefo...-Mavic 2 Enterprise,276DFAP001K3FQ,0K8HFA801103AV,0VECFAN0072UWQ,161AFAB6360172,,Android, 4.8.0,,,,,,
39,11/20/2018,23:32.4,0m 4.2s,4.2,39.89197313,-105.2622347,0,0,0.3,6402,0,1.1,0,0,0,0,0,0,5.8,5.7,-46.7,313.3,Manual Takeoff,Other,Takeoff (RC Assisted),13,4,TRUE,,Mavic 2 Enterprise,TRUE,FALSE,,Smart,RC,TRUE,TRUE,FALSE,,,TRUE,,FALSE,FALSE,FALSE,FALSE,FALSE,FALSE,FALSE,FALSE,FALSE,FALSE,0,Follow Yaw,0,0,-46.3,313.7,FALSE,FALSE,FALSE,FALSE,FALSE,TRUE,,TRUE,Card Too Slow,,,1024,1024,1024,1024,1,FALSE,FALSE,FALSE,FALSE,FALSE,0,FALSE,FALSE,FALSE,FALSE,100,,,,17.227,FALSE,4.308,4.314,4.304,4.301,0.013,FALSE,FALSE,,,,,0,1,0,15,10,7998.6,2050.93,,Idle,0,25,FALSE,10,TRUE,,Go Home,39.89197839,-105.2622411,2.6,6130.5,393.7,TRUE,1,1,FALSE,FALSE,FALSE,FALSE,0,TRUE,FALSE,FALSE,Course Lock,98.4,,16.4,Calm,7,Android, 4.8.0,dronefo...-Mavic 2 Enterprise,276DFAP001K3FQ,0K8HFA801103AV,0VECFAN0072UWQ,161AFAB6360172,207.7,6462.2,50.2,45.7,8.3,0,208,dronefo...-Mavic 2 Enterprise,276DFAP001K3FQ,0K8HFA801103AV,0VECFAN0072UWQ,161AFAB6360172,,Android, 4.8.0,,,,,,
40,11/20/2018,23:32.6,0m 4.3s,4.3,39.89197312,-105.2622347,0,0,0.3,6402,0,1.1,0,0,0,0,0,0,5.8,5.7,-46.7,313.3,Manual Takeoff,Other,Takeoff (RC Assisted),13,4,TRUE,,Mavic 2 Enterprise,TRUE,FALSE,,Smart,RC,TRUE,TRUE,FALSE,,,TRUE,,FALSE,FALSE,FALSE,FALSE,FALSE,FALSE,FALSE,FALSE,FALSE,FALSE,0,Follow Yaw,0,0,-46.3,313.7,FALSE,FALSE,FALSE,FALSE,FALSE,TRUE,,TRUE,Card Too Slow,,,1024,1024,1024,1024,1,FALSE,FALSE,FALSE,FALSE,FALSE,0,FALSE,FALSE,FALSE,FALSE,100,,,,17.227,FALSE,4.308,4.314,4.304,4.301,0.013,FALSE,FALSE,,,,,0,1,0,15,10,7998.6,2050.93,,Idle,0,25,FALSE,10,TRUE,,Go Home,39.89197839,-105.2622411,2.6,6130.5,393.7,TRUE,1,1,FALSE,FALSE,FALSE,FALSE,0,TRUE,FALSE,FALSE,Course Lock,98.4,,16.4,Calm,7,Android, 4.8.0,dronefo...-Mavic 2 Enterprise,276DFAP001K3FQ,0K8HFA801103AV,0VECFAN0072UWQ,161AFAB6360172,207.7,6462.2,50.2,45.7,8.3,0,208,dronefo...-Mavic 2 Enterprise,276DFAP001K3FQ,0K8HFA801103AV,0VECFAN0072UWQ,161AFAB6360172,,Android, 4.8.0,,,,,,
41,11/20/2018,23:32.6,0m 4.4s,4.4,39.89197315,-105.2622346,0,0,0.3,6402,0,1.1,0,0,0,0,0,0,5.8,5.7,-46.7,313.3,Manual Takeoff,Other,Takeoff (RC Assisted),13,4,TRUE,,Mavic 2 Enterprise,TRUE,FALSE,,Smart,RC,TRUE,TRUE,FALSE,,,TRUE,,FALSE,FALSE,FALSE,FALSE,FALSE,FALSE,FALSE,FALSE,FALSE,FALSE,0,Follow Yaw,0,0,-46.3,313.7,FALSE,FALSE,FALSE,FALSE,FALSE,TRUE,,TRUE,Card Too Slow,,,1024,1024,1024,1024,1,FALSE,FALSE,FALSE,FALSE,FALSE,0,FALSE,FALSE,FALSE,FALSE,100,,,,17.216,FALSE,4.308,4.314,4.304,4.301,0.013,FALSE,FALSE,,,,,0,1,0,15,10,9011.6,2310.66,,Idle,0,25,FALSE,10,TRUE,,Go Home,39.89197839,-105.2622411,2.6,6130.5,393.7,TRUE,1,1,FALSE,FALSE,FALSE,FALSE,0,TRUE,FALSE,FALSE,Course Lock,98.4,,16.4,Calm,7,Android, 4.8.0,dronefo...-Mavic 2 Enterprise,276DFAP001K3FQ,0K8HFA801103AV,0VECFAN0072UWQ,161AFAB6360172,207.7,6462.2,50.2,45.7,8.3,0,208,dronefo...-Mavic 2 Enterprise,276DFAP001K3FQ,0K8HFA801103AV,0VECFAN0072UWQ,161AFAB6360172,,Android, 4.8.0,,,,,,
42,11/20/2018,23:32.7,0m 4.5s,4.5,39.89197315,-105.2622346,0,0,0.3,6402,0,1.1,0,0,0,0,0,0,5.8,5.7,-46.7,313.3,Manual Takeoff,Other,Takeoff (RC Assisted),13,4,TRUE,,Mavic 2 Enterprise,TRUE,FALSE,,Smart,RC,TRUE,TRUE,FALSE,,,TRUE,,FALSE,FALSE,FALSE,FALSE,FALSE,FALSE,FALSE,FALSE,FALSE,FALSE,0,Follow Yaw,0,0,-46.3,313.7,FALSE,FALSE,FALSE,FALSE,FALSE,TRUE,,TRUE,Card Too Slow,,,1024,1024,1024,1024,1,FALSE,FALSE,FALSE,FALSE,FALSE,0,FALSE,FALSE,FALSE,FALSE,100,,,,17.216,FALSE,4.308,4.314,4.304,4.301,0.013,FALSE,FALSE,,,,,0,1,0,15,10,9011.6,2310.66,,Idle,0,25,FALSE,10,TRUE,,Go Home,39.89197839,-105.2622411,2.6,6130.5,393.7,TRUE,1,1,FALSE,FALSE,FALSE,FALSE,0,TRUE,FALSE,FALSE,Course Lock,98.4,,16.4,Calm,7,Android, 4.8.0,dronefo...-Mavic 2 Enterprise,276DFAP001K3FQ,0K8HFA801103AV,0VECFAN0072UWQ,161AFAB6360172,207.7,6462.2,50.2,45.7,8.3,0,208,dronefo...-Mavic 2 Enterprise,276DFAP001K3FQ,0K8HFA801103AV,0VECFAN0072UWQ,161AFAB6360172,,Android, 4.8.0,,,,,,
43,11/20/2018,23:32.8,0m 4.6s,4.6,39.89197317,-105.2622347,0,0,0.3,6402,0,1.1,0,0,0,0,0,0,5.8,5.7,-46.7,313.3,Manual Takeoff,Other,Takeoff (RC Assisted),13,4,TRUE,,Mavic 2 Enterprise,TRUE,FALSE,,Smart,RC,TRUE,TRUE,FALSE,,,TRUE,,FALSE,FALSE,FALSE,FALSE,FALSE,FALSE,FALSE,FALSE,FALSE,FALSE,0,Follow Yaw,0,0,-46.3,313.7,FALSE,FALSE,FALSE,FALSE,FALSE,TRUE,,TRUE,Card Too Slow,,,1024,1024,1024,1024,1,FALSE,FALSE,FALSE,FALSE,FALSE,0,FALSE,FALSE,FALSE,FALSE,100,,,,17.216,FALSE,4.308,4.314,4.304,4.301,0.013,FALSE,FALSE,,,,,0,1,0,15,10,9011.6,2310.66,,Idle,0,25,FALSE,10,TRUE,,Go Home,39.89197839,-105.2622411,2.6,6130.5,393.7,TRUE,1,1,FALSE,FALSE,FALSE,FALSE,0,TRUE,FALSE,FALSE,Course Lock,98.4,,16.4,Calm,7,Android, 4.8.0,dronefo...-Mavic 2 Enterprise,276DFAP001K3FQ,0K8HFA801103AV,0VECFAN0072UWQ,161AFAB6360172,207.7,6462.2,50.2,45.7,8.3,0,208,dronefo...-Mavic 2 Enterprise,276DFAP001K3FQ,0K8HFA801103AV,0VECFAN0072UWQ,161AFAB6360172,,Android, 4.8.0,,,,,,
44,11/20/2018,23:32.9,0m 4.7s,4.7,39.89197317,-105.2622346,0,0,0.3,6402,0,1.1,0,0,0,0,0,0,5.8,5.7,-46.7,313.3,Manual Takeoff,Other,Takeoff (RC Assisted),13,4,TRUE,,Mavic 2 Enterprise,TRUE,FALSE,,Smart,RC,TRUE,TRUE,FALSE,,,TRUE,,FALSE,FALSE,FALSE,FALSE,FALSE,FALSE,FALSE,FALSE,FALSE,FALSE,0,Follow Yaw,0,0,-46.3,313.7,FALSE,FALSE,FALSE,FALSE,FALSE,TRUE,,TRUE,Card Too Slow,,,1024,1024,1024,1024,1,FALSE,FALSE,FALSE,FALSE,FALSE,0,FALSE,FALSE,FALSE,FALSE,100,,,,17.216,FALSE,4.308,4.314,4.304,4.301,0.013,FALSE,FALSE,,,,,0,1,0,15,10,9011.6,2310.66,,Idle,0,25,FALSE,10,TRUE,,Go Home,39.89197839,-105.2622411,2.6,6130.5,393.7,TRUE,1,1,FALSE,FALSE,FALSE,FALSE,0,TRUE,FALSE,FALSE,Course Lock,98.4,,16.4,Calm,7,Android, 4.8.0,dronefo...-Mavic 2 Enterprise,276DFAP001K3FQ,0K8HFA801103AV,0VECFAN0072UWQ,161AFAB6360172,207.7,6462.2,50.2,45.7,8.3,0,208,dronefo...-Mavic 2 Enterprise,276DFAP001K3FQ,0K8HFA801103AV,0VECFAN0072UWQ,161AFAB6360172,,Android, 4.8.0,,,,,,
45,11/20/2018,23:33.0,0m 4.8s,4.8,39.89197319,-105.2622345,0,0,0.3,6402,0,1.1,0,0,0,0,0,0,5.8,5.7,-46.7,313.3,Manual Takeoff,Other,Takeoff (RC Assisted),13,4,TRUE,,Mavic 2 Enterprise,TRUE,FALSE,,Smart,RC,TRUE,TRUE,FALSE,,,TRUE,,FALSE,FALSE,FALSE,FALSE,FALSE,FALSE,FALSE,FALSE,FALSE,FALSE,0,Follow Yaw,0,0,-46.3,313.7,FALSE,FALSE,FALSE,FALSE,FALSE,TRUE,,TRUE,Card Too Slow,,,1024,1024,1024,1024,1,FALSE,FALSE,FALSE,FALSE,FALSE,0,FALSE,FALSE,FALSE,FALSE,100,,,,17.216,FALSE,4.308,4.314,4.304,4.301,0.013,FALSE,FALSE,,,,,0,1,0,15,10,9011.6,2310.66,,Idle,0,25,FALSE,10,TRUE,,Go Home,39.89197839,-105.2622411,2.6,6130.5,393.7,TRUE,1,1,FALSE,FALSE,FALSE,FALSE,0,TRUE,FALSE,FALSE,Course Lock,98.4,,16.4,Calm,7,Android, 4.8.0,dronefo...-Mavic 2 Enterprise,276DFAP001K3FQ,0K8HFA801103AV,0VECFAN0072UWQ,161AFAB6360172,207.7,6462.2,50.2,45.7,8.3,0,208,dronefo...-Mavic 2 Enterprise,276DFAP001K3FQ,0K8HFA801103AV,0VECFAN0072UWQ,161AFAB6360172,,Android, 4.8.0,,,,,,
46,11/20/2018,23:33.1,0m 4.9s,4.9,39.89197319,-105.2622345,0,0,0.3,6402,0,1.1,0,0,0,0,0,0,5.8,5.7,-46.7,313.3,Manual Takeoff,Other,Takeoff (RC Assisted),13,4,TRUE,,Mavic 2 Enterprise,TRUE,FALSE,,Smart,RC,TRUE,TRUE,FALSE,,,TRUE,,FALSE,FALSE,FALSE,FALSE,FALSE,FALSE,FALSE,FALSE,FALSE,FALSE,0,Follow Yaw,0,0,-46.4,313.6,FALSE,FALSE,FALSE,FALSE,FALSE,TRUE,,TRUE,Card Too Slow,,,1024,1024,1024,1024,1,FALSE,FALSE,FALSE,FALSE,FALSE,0,FALSE,FALSE,FALSE,FALSE,100,,,,17.216,FALSE,4.308,4.314,4.304,4.301,0.013,FALSE,FALSE,,,,,0,1,0,15,10,9011.6,2310.66,,Idle,0,25,FALSE,10,TRUE,,Go Home,39.89197839,-105.2622411,2.6,6130.5,393.7,TRUE,1,1,FALSE,FALSE,FALSE,FALSE,0,TRUE,FALSE,FALSE,Course Lock,98.4,,16.4,Calm,7,Android, 4.8.0,dronefo...-Mavic 2 Enterprise,276DFAP001K3FQ,0K8HFA801103AV,0VECFAN0072UWQ,161AFAB6360172,207.7,6462.2,50.2,45.7,8.3,0,208,dronefo...-Mavic 2 Enterprise,276DFAP001K3FQ,0K8HFA801103AV,0VECFAN0072UWQ,161AFAB6360172,,Android, 4.8.0,,,,,,
47,11/20/2018,23:33.2,0m 5.0s,5,39.89197304,-105.2622344,0,0,0.3,6402,0,1.1,0,0,0,0,0,0,5.8,5.7,-46.7,313.3,Manual Takeoff,Other,Takeoff (RC Assisted),13,4,TRUE,,Mavic 2 Enterprise,TRUE,FALSE,,Smart,RC,TRUE,TRUE,FALSE,,,TRUE,,FALSE,FALSE,FALSE,FALSE,FALSE,FALSE,FALSE,FALSE,FALSE,FALSE,0,Follow Yaw,0,0,-46.4,313.6,FALSE,FALSE,FALSE,FALSE,FALSE,TRUE,,TRUE,Card Too Slow,,,1024,1024,1024,1024,1,FALSE,FALSE,FALSE,FALSE,FALSE,0,FALSE,FALSE,FALSE,FALSE,100,,,,17.227,FALSE,4.308,4.314,4.304,4.301,0.013,FALSE,FALSE,,,,,0,1,0,15,10,9011.6,2310.66,,Idle,0,25,FALSE,10,TRUE,,Go Home,39.89197839,-105.2622411,2.7,6130.5,393.7,TRUE,1,1,FALSE,FALSE,FALSE,FALSE,0,TRUE,FALSE,FALSE,Course Lock,98.4,,16.4,Calm,7,Android, 4.8.0,dronefo...-Mavic 2 Enterprise,276DFAP001K3FQ,0K8HFA801103AV,0VECFAN0072UWQ,161AFAB6360172,207.7,6462.2,50.2,45.7,8.3,0,208,dronefo...-Mavic 2 Enterprise,276DFAP001K3FQ,0K8HFA801103AV,0VECFAN0072UWQ,161AFAB6360172,,Android, 4.8.0,,,,,,
48,11/20/2018,23:33.3,0m 5.1s,5.1,39.89197303,-105.2622344,0,0,0.3,6402,0,1.1,0,0,0,0,0,0,5.8,5.7,-46.7,313.3,Manual Takeoff,Other,Takeoff (RC Assisted),13,4,TRUE,,Mavic 2 Enterprise,TRUE,FALSE,,Smart,RC,TRUE,TRUE,FALSE,,,TRUE,,FALSE,FALSE,FALSE,FALSE,FALSE,FALSE,FALSE,FALSE,FALSE,FALSE,0,Follow Yaw,0,0,-46.4,313.6,FALSE,FALSE,FALSE,FALSE,FALSE,TRUE,,TRUE,Card Too Slow,,,1024,1024,1024,1024,1,FALSE,FALSE,FALSE,FALSE,FALSE,0,FALSE,FALSE,FALSE,FALSE,100,,,,17.227,FALSE,4.308,4.314,4.304,4.301,0.013,FALSE,FALSE,,,,,0,1,0,15,10,9011.6,2310.66,,Idle,0,25,FALSE,10,TRUE,,Go Home,39.89197839,-105.2622411,2.7,6130.5,393.7,TRUE,1,1,FALSE,FALSE,FALSE,FALSE,0,TRUE,FALSE,FALSE,Course Lock,98.4,,16.4,Calm,7,Android, 4.8.0,dronefo...-Mavic 2 Enterprise,276DFAP001K3FQ,0K8HFA801103AV,0VECFAN0072UWQ,161AFAB6360172,207.7,6462.2,50.2,45.7,8.3,0,208,dronefo...-Mavic 2 Enterprise,276DFAP001K3FQ,0K8HFA801103AV,0VECFAN0072UWQ,161AFAB6360172,,Android, 4.8.0,,,,,,
49,11/20/2018,23:33.4,0m 5.2s,5.2,39.89197306,-105.2622343,0,0,0.3,6402,0,1.1,0,0,0,0,0,0,5.8,5.7,-46.7,313.3,Manual Takeoff,Other,Takeoff (RC Assisted),13,4,TRUE,,Mavic 2 Enterprise,TRUE,FALSE,,Smart,RC,TRUE,TRUE,FALSE,,,TRUE,,FALSE,FALSE,FALSE,FALSE,FALSE,FALSE,FALSE,FALSE,FALSE,FALSE,0,Follow Yaw,0,0,-46.4,313.6,FALSE,FALSE,FALSE,FALSE,FALSE,TRUE,,TRUE,Card Too Slow,,,1024,1024,1024,1024,1,FALSE,FALSE,FALSE,FALSE,FALSE,0,FALSE,FALSE,FALSE,FALSE,100,,,,17.227,FALSE,4.308,4.314,4.304,4.301,0.013,FALSE,FALSE,,,,,0,1,0,15,10,9011.6,2310.66,,Idle,0,25,FALSE,10,TRUE,,Go Home,39.89197839,-105.2622411,2.7,6130.5,393.7,TRUE,1,1,FALSE,FALSE,FALSE,FALSE,0,TRUE,FALSE,FALSE,Course Lock,98.4,,16.4,Calm,7,Android, 4.8.0,dronefo...-Mavic 2 Enterprise,276DFAP001K3FQ,0K8HFA801103AV,0VECFAN0072UWQ,161AFAB6360172,207.7,6462.2,50.2,45.7,8.3,0,208,dronefo...-Mavic 2 Enterprise,276DFAP001K3FQ,0K8HFA801103AV,0VECFAN0072UWQ,161AFAB6360172,,Android, 4.8.0,,,,,,
50,11/20/2018,23:33.5,0m 5.3s,5.3,39.89197305,-105.2622343,0,0,0.3,6402,0,1.1,0,0,0,0,0,0,5.8,5.7,-46.7,313.3,Manual Takeoff,Other,Takeoff (RC Assisted),13,4,TRUE,,Mavic 2 Enterprise,TRUE,FALSE,,Smart,RC,TRUE,TRUE,FALSE,,,TRUE,,FALSE,FALSE,FALSE,FALSE,FALSE,FALSE,FALSE,FALSE,FALSE,FALSE,0,Follow Yaw,0,0,-46.4,313.6,FALSE,FALSE,FALSE,FALSE,FALSE,TRUE,,TRUE,Card Too Slow,,,1024,1024,1024,1024,1,FALSE,FALSE,FALSE,FALSE,FALSE,0,FALSE,FALSE,FALSE,FALSE,100,,,,17.227,FALSE,4.308,4.314,4.304,4.301,0.013,FALSE,FALSE,,,,,0,1,0,15,10,9011.6,2310.66,,Idle,0,25,FALSE,10,TRUE,,Go Home,39.89197839,-105.2622411,2.7,6130.5,393.7,TRUE,1,1,FALSE,FALSE,FALSE,FALSE,0,TRUE,FALSE,FALSE,Course Lock,98.4,,16.4,Calm,7,Android, 4.8.0,dronefo...-Mavic 2 Enterprise,276DFAP001K3FQ,0K8HFA801103AV,0VECFAN0072UWQ,161AFAB6360172,207.7,6462.2,50.2,45.7,8.3,0,208,dronefo...-Mavic 2 Enterprise,276DFAP001K3FQ,0K8HFA801103AV,0VECFAN0072UWQ,161AFAB6360172,,Android, 4.8.0,,,,,,
51,11/20/2018,23:33.7,0m 5.4s,5.4,39.89197292,-105.2622342,0,0,0.3,6402,0,1.1,0,0,0,0,0,0,5.8,5.7,-46.7,313.3,Manual Takeoff,Other,Takeoff (RC Assisted),13,4,TRUE,,Mavic 2 Enterprise,TRUE,FALSE,,Smart,RC,TRUE,TRUE,FALSE,,,TRUE,,FALSE,FALSE,FALSE,FALSE,FALSE,FALSE,FALSE,FALSE,FALSE,FALSE,0,Follow Yaw,0,0,-46.4,313.6,FALSE,FALSE,FALSE,FALSE,FALSE,TRUE,,TRUE,Card Too Slow,,,1024,1024,1024,1024,1,FALSE,FALSE,FALSE,FALSE,FALSE,0,FALSE,FALSE,FALSE,FALSE,100,,,,17.226,FALSE,4.308,4.314,4.304,4.301,0.013,FALSE,FALSE,,,,,0,1,0,15,10,9750.5,2500.13,,Idle,0,25,FALSE,10,TRUE,,Go Home,39.89197839,-105.2622411,2.8,6130.5,393.7,TRUE,1,1,FALSE,FALSE,FALSE,FALSE,0,TRUE,FALSE,FALSE,Course Lock,98.4,,16.4,Calm,7,Android, 4.8.0,dronefo...-Mavic 2 Enterprise,276DFAP001K3FQ,0K8HFA801103AV,0VECFAN0072UWQ,161AFAB6360172,207.7,6462.2,50.2,45.7,8.3,0,208,dronefo...-Mavic 2 Enterprise,276DFAP001K3FQ,0K8HFA801103AV,0VECFAN0072UWQ,161AFAB6360172,,Android, 4.8.0,,,,,,
52,11/20/2018,23:33.8,0m 5.5s,5.5,39.8919729,-105.2622342,0,0,0.3,6402,0,1.1,0,0,0,0,0,0,5.8,5.7,-46.7,313.3,Manual Takeoff,Other,Takeoff (RC Assisted),13,4,TRUE,,Mavic 2 Enterprise,TRUE,FALSE,,Smart,RC,TRUE,TRUE,FALSE,,,TRUE,,FALSE,FALSE,FALSE,FALSE,FALSE,FALSE,FALSE,FALSE,FALSE,FALSE,0,Follow Yaw,0,0,-46.4,313.6,FALSE,FALSE,FALSE,FALSE,FALSE,TRUE,,TRUE,Card Too Slow,,,1024,1024,1024,1024,1,FALSE,FALSE,FALSE,FALSE,FALSE,0,FALSE,FALSE,FALSE,FALSE,100,,,,17.226,FALSE,4.308,4.314,4.304,4.301,0.013,FALSE,FALSE,,,,,0,1,0,15,10,9750.5,2500.13,,Idle,0,25,FALSE,10,TRUE,,Go Home,39.89197839,-105.2622411,2.8,6130.5,393.7,TRUE,1,1,FALSE,FALSE,FALSE,FALSE,0,TRUE,FALSE,FALSE,Course Lock,98.4,,16.4,Calm,7,Android, 4.8.0,dronefo...-Mavic 2 Enterprise,276DFAP001K3FQ,0K8HFA801103AV,0VECFAN0072UWQ,161AFAB6360172,207.7,6462.2,50.2,45.7,8.3,0,208,dronefo...-Mavic 2 Enterprise,276DFAP001K3FQ,0K8HFA801103AV,0VECFAN0072UWQ,161AFAB6360172,,Android, 4.8.0,,,,,,
53,11/20/2018,23:33.8,0m 5.6s,5.6,39.89197293,-105.2622343,0,0,0.3,6402,0,1.1,0,0,0,0,0,0,5.8,5.7,-46.7,313.3,Manual Takeoff,Other,Takeoff (RC Assisted),13,4,TRUE,,Mavic 2 Enterprise,TRUE,FALSE,,Smart,RC,TRUE,TRUE,FALSE,,,TRUE,,FALSE,FALSE,FALSE,FALSE,FALSE,FALSE,FALSE,FALSE,FALSE,FALSE,0,Follow Yaw,0,0,-46.4,313.6,FALSE,FALSE,FALSE,FALSE,FALSE,TRUE,,TRUE,Card Too Slow,,,1024,1024,1024,1024,1,FALSE,FALSE,FALSE,FALSE,FALSE,0,FALSE,FALSE,FALSE,FALSE,100,,,,17.226,FALSE,4.308,4.314,4.304,4.301,0.013,FALSE,FALSE,,,,,0,1,0,15,10,9750.5,2500.13,,Idle,0,25,FALSE,10,TRUE,,Go Home,39.89197839,-105.2622411,2.8,6130.5,393.7,TRUE,1,1,FALSE,FALSE,FALSE,FALSE,0,TRUE,FALSE,FALSE,Course Lock,98.4,,16.4,Calm,7,Android, 4.8.0,dronefo...-Mavic 2 Enterprise,276DFAP001K3FQ,0K8HFA801103AV,0VECFAN0072UWQ,161AFAB6360172,207.7,6462.2,50.2,45.7,8.3,0,208,dronefo...-Mavic 2 Enterprise,276DFAP001K3FQ,0K8HFA801103AV,0VECFAN0072UWQ,161AFAB6360172,,Android, 4.8.0,,,,,,
54,11/20/2018,23:34.0,0m 5.7s,5.7,39.89197292,-105.2622342,0,0,0.3,6402,0,1.1,0,0,0,0,0,0,5.8,5.7,-46.7,313.3,Manual Takeoff,Other,Takeoff (RC Assisted),13,4,TRUE,,Mavic 2 Enterprise,TRUE,FALSE,,Smart,RC,TRUE,TRUE,FALSE,,,TRUE,,FALSE,FALSE,FALSE,FALSE,FALSE,FALSE,FALSE,FALSE,FALSE,FALSE,0,Follow Yaw,0,0,-46.4,313.6,FALSE,FALSE,FALSE,FALSE,FALSE,TRUE,,TRUE,Card Too Slow,,,1024,1024,1024,1024,1,FALSE,FALSE,FALSE,FALSE,FALSE,0,FALSE,FALSE,FALSE,FALSE,100,,,,17.226,FALSE,4.308,4.314,4.304,4.301,0.013,FALSE,FALSE,,,,,0,1,0,15,10,9750.5,2500.13,,Idle,0,25,FALSE,10,TRUE,,Go Home,39.89197839,-105.2622411,2.8,6130.5,393.7,TRUE,1,1,FALSE,FALSE,FALSE,FALSE,0,TRUE,FALSE,FALSE,Course Lock,98.4,,16.4,Calm,7,Android, 4.8.0,dronefo...-Mavic 2 Enterprise,276DFAP001K3FQ,0K8HFA801103AV,0VECFAN0072UWQ,161AFAB6360172,207.7,6462.2,50.2,45.7,8.3,0,208,dronefo...-Mavic 2 Enterprise,276DFAP001K3FQ,0K8HFA801103AV,0VECFAN0072UWQ,161AFAB6360172,,Android, 4.8.0,,,,,,
55,11/20/2018,23:34.1,0m 5.8s,5.8,39.89197295,-105.2622341,0,0,0.3,6402,0,1.1,0,0,0,0,0,0,5.8,5.7,-46.7,313.3,Manual Takeoff,Other,Takeoff (RC Assisted),13,4,TRUE,,Mavic 2 Enterprise,TRUE,FALSE,,Smart,RC,TRUE,TRUE,FALSE,,,TRUE,,FALSE,FALSE,FALSE,FALSE,FALSE,FALSE,FALSE,FALSE,FALSE,FALSE,0,Follow Yaw,0,0,-46.4,313.6,FALSE,FALSE,FALSE,FALSE,FALSE,TRUE,,TRUE,Card Too Slow,,,1024,1024,1024,1024,1,FALSE,FALSE,FALSE,FALSE,FALSE,0,FALSE,FALSE,FALSE,FALSE,100,,,,17.226,FALSE,4.308,4.314,4.304,4.301,0.013,FALSE,FALSE,,,,,0,1,0,15,10,9750.5,2500.13,,Idle,0,25,FALSE,10,TRUE,,Go Home,39.89197839,-105.2622411,2.8,6130.5,393.7,TRUE,1,1,FALSE,FALSE,FALSE,FALSE,0,TRUE,FALSE,FALSE,Course Lock,98.4,,16.4,Calm,7,Android, 4.8.0,dronefo...-Mavic 2 Enterprise,276DFAP001K3FQ,0K8HFA801103AV,0VECFAN0072UWQ,161AFAB6360172,207.7,6462.2,50.2,45.7,8.3,0,208,dronefo...-Mavic 2 Enterprise,276DFAP001K3FQ,0K8HFA801103AV,0VECFAN0072UWQ,161AFAB6360172,,Android, 4.8.0,,,,,,
56,11/20/2018,23:34.2,0m 5.9s,5.9,39.89197294,-105.2622341,0,0,0.3,6402,0,1.1,0,0,0,0,0,0,5.8,5.7,-46.7,313.3,Manual Takeoff,Other,Takeoff (RC Assisted),13,4,TRUE,,Mavic 2 Enterprise,TRUE,FALSE,,Smart,RC,TRUE,TRUE,FALSE,,,TRUE,,FALSE,FALSE,FALSE,FALSE,FALSE,FALSE,FALSE,FALSE,FALSE,FALSE,0,Follow Yaw,0,0,-46.4,313.6,FALSE,FALSE,FALSE,FALSE,FALSE,TRUE,,TRUE,Card Too Slow,,,1024,1024,1024,1024,1,FALSE,FALSE,FALSE,FALSE,FALSE,0,FALSE,FALSE,FALSE,FALSE,100,,,,17.226,FALSE,4.308,4.314,4.304,4.301,0.013,FALSE,FALSE,,,,,0,1,0,15,10,9750.5,2500.13,,Idle,0,25,FALSE,10,TRUE,,Go Home,39.89197839,-105.2622411,2.8,6130.5,393.7,TRUE,1,1,FALSE,FALSE,FALSE,FALSE,0,TRUE,FALSE,FALSE,Course Lock,98.4,,16.4,Calm,7,Android, 4.8.0,dronefo...-Mavic 2 Enterprise,276DFAP001K3FQ,0K8HFA801103AV,0VECFAN0072UWQ,161AFAB6360172,207.7,6462.2,50.2,45.7,8.3,0,208,dronefo...-Mavic 2 Enterprise,276DFAP001K3FQ,0K8HFA801103AV,0VECFAN0072UWQ,161AFAB6360172,,Android, 4.8.0,,,,,,
57,11/20/2018,23:34.3,0m 6.0s,6,39.89197281,-105.2622342,0,0,0.3,6402,0,1.1,0,0,0,0,0,0,5.7,5.7,-46.7,313.3,Manual Takeoff,Other,Takeoff (RC Assisted),13,4,TRUE,,Mavic 2 Enterprise,TRUE,FALSE,,Smart,RC,TRUE,TRUE,FALSE,,,TRUE,,FALSE,FALSE,FALSE,FALSE,FALSE,FALSE,FALSE,FALSE,FALSE,FALSE,0,Follow Yaw,0,0,-46.4,313.6,FALSE,FALSE,FALSE,FALSE,FALSE,TRUE,,TRUE,Card Too Slow,,,1024,1024,1024,1024,1,FALSE,FALSE,FALSE,FALSE,FALSE,0,FALSE,FALSE,FALSE,FALSE,100,,,,17.227,FALSE,4.308,4.314,4.304,4.301,0.013,FALSE,FALSE,,,,,0,1,0,15,10,9750.5,2500.13,,Idle,0,25,FALSE,10,TRUE,,Go Home,39.89197839,-105.2622411,2.8,6130.5,393.7,TRUE,1,1,FALSE,FALSE,FALSE,FALSE,0,TRUE,FALSE,FALSE,Course Lock,98.4,,16.4,Calm,7,Android, 4.8.0,dronefo...-Mavic 2 Enterprise,276DFAP001K3FQ,0K8HFA801103AV,0VECFAN0072UWQ,161AFAB6360172,207.7,6462.2,50.2,45.7,8.3,0,208,dronefo...-Mavic 2 Enterprise,276DFAP001K3FQ,0K8HFA801103AV,0VECFAN0072UWQ,161AFAB6360172,,Android, 4.8.0,,,,,,
58,11/20/2018,23:34.4,0m 6.1s,6.1,39.89197279,-105.2622342,0,0,0.3,6402,0,1.1,0,0,0,0,0,0,5.7,5.7,-46.7,313.3,Manual Takeoff,Other,Takeoff (RC Assisted),13,4,TRUE,,Mavic 2 Enterprise,TRUE,FALSE,,Smart,RC,TRUE,TRUE,FALSE,,,TRUE,,FALSE,FALSE,FALSE,FALSE,FALSE,FALSE,FALSE,FALSE,FALSE,FALSE,0,Follow Yaw,0,0,-46.4,313.6,FALSE,FALSE,FALSE,FALSE,FALSE,TRUE,,TRUE,Card Too Slow,,,1024,1024,1024,1024,1,FALSE,FALSE,FALSE,FALSE,FALSE,0,FALSE,FALSE,FALSE,FALSE,100,,,,17.227,FALSE,4.308,4.314,4.304,4.301,0.013,FALSE,FALSE,,,,,0,1,0,15,10,9750.5,2500.13,,Idle,0,25,FALSE,10,TRUE,,Go Home,39.89197839,-105.2622411,2.8,6130.5,393.7,TRUE,1,1,FALSE,FALSE,FALSE,FALSE,0,TRUE,FALSE,FALSE,Course Lock,98.4,,16.4,Calm,7,Android, 4.8.0,dronefo...-Mavic 2 Enterprise,276DFAP001K3FQ,0K8HFA801103AV,0VECFAN0072UWQ,161AFAB6360172,207.7,6462.2,50.2,45.7,8.3,0,208,dronefo...-Mavic 2 Enterprise,276DFAP001K3FQ,0K8HFA801103AV,0VECFAN0072UWQ,161AFAB6360172,,Android, 4.8.0,,,,,,
59,11/20/2018,23:34.5,0m 6.2s,6.2,39.89197282,-105.2622341,0,0,0.3,6402,0,1.1,0,0,0,0,0,0,5.7,5.7,-46.7,313.3,Manual Takeoff,Other,Takeoff (RC Assisted),13,4,TRUE,,Mavic 2 Enterprise,TRUE,FALSE,,Smart,RC,TRUE,TRUE,FALSE,,,TRUE,,FALSE,FALSE,FALSE,FALSE,FALSE,FALSE,FALSE,FALSE,FALSE,FALSE,0,Follow Yaw,0,0,-46.5,313.5,FALSE,FALSE,FALSE,FALSE,FALSE,TRUE,,TRUE,Card Too Slow,,,1024,1024,1024,1024,1,FALSE,FALSE,FALSE,FALSE,FALSE,0,FALSE,FALSE,FALSE,FALSE,100,,,,17.227,FALSE,4.308,4.314,4.304,4.301,0.013,FALSE,FALSE,,,,,0,1,0,15,10,9750.5,2500.13,,Idle,0,25,FALSE,10,TRUE,,Go Home,39.89197839,-105.2622411,2.8,6130.5,393.7,TRUE,1,1,FALSE,FALSE,FALSE,FALSE,0,TRUE,FALSE,FALSE,Course Lock,98.4,,16.4,Calm,7,Android, 4.8.0,dronefo...-Mavic 2 Enterprise,276DFAP001K3FQ,0K8HFA801103AV,0VECFAN0072UWQ,161AFAB6360172,207.7,6462.2,50.2,45.7,8.3,0,208,dronefo...-Mavic 2 Enterprise,276DFAP001K3FQ,0K8HFA801103AV,0VECFAN0072UWQ,161AFAB6360172,,Android, 4.8.0,,,,,,
