#,CUSTOM.date [local], CUSTOM.updateTime [local], OSD.flyTime, OSD.flyTime [s], OSD.latitude, OSD.longitude, OSD.height [ft], OSD.heightMax [ft], OSD.vpsHeight [ft], OSD.altitude [ft], OSD.hSpeed [MPH], OSD.hSpeedMax [MPH], OSD.xSpeed [MPH], OSD.xSpeedMax [MPH], OSD.ySpeed [MPH], OSD.ySpeedMax [MPH], OSD.zSpeed [MPH], OSD.zSpeedMax [MPH], OSD.pitch, OSD.roll, OSD.yaw, OSD.yaw [360], OSD.flycState, OSD.flycCommand, OSD.flightAction, OSD.gpsNum, OSD.gpsLevel, OSD.isGPSUsed, OSD.nonGPSCause, OSD.droneType, OSD.isSwaveWork, OSD.waveError, OSD.goHomeStatus, OSD.batteryType, OSD.ctrlDevice, OSD.isOnGround, OSD.isMotorOn, OSD.isMotorBlocked, OSD.motorStartFailedCause, OSD.motorFailReason, OSD.isImuPreheated, OSD.imuInitFailReason, OSD.isAcceletorOverRange, OSD.isBarometerDeadInAir, OSD.isCompassError, OSD.isGoHomeHeightModified, OSD.canIOCWork, OSD.isNotEnoughForce, OSD.isOutOfLimit, OSD.isPropellerCatapult, OSD.isVibrating, OSD.isVisionUsed, OSD.voltageWarning, GIMBAL.mode, GIMBAL.pitch, GIMBAL.roll, GIMBAL.yaw, GIMBAL.yaw [360], GIMBAL.isPitchAtLimit, GIMBAL.isRollAtLimit, GIMBAL.isYawAtLimit, GIMBAL.isStuck, CAMERA.isPhoto, CAMERA.isVideo, CAMERA.filename, CAMERA.sdCardIsInserted, CAMERA.sdCardState, RC.downlinkSignal, RC.uplinkSignal, RC.aileron, RC.elevator, RC.throttle, RC.rudder, RC.mode, RC.goHomeDepressed, RC.recordDepressed, RC.shutterDepressed, RC.playbackDepressed, RC.wheelDepressed, RC.wheelOffset, RC.custom1Depressed, RC.custom2Depressed, RC.custom3Depressed, RC.custom4Depressed, BATTERY.chargeLevel, BATTERY.currentPV [V], BATTERY.currentCapacity [mAh], BATTERY.fullCapacity [mAh], BATTERY.voltage [V], BATTERY.isCellVoltageEstimated, BATTERY.cellVoltage1 [V], BATTERY.cellVoltage2 [V], BATTERY.cellVoltage3 [V], BATTERY.cellVoltage4 [V], BATTERY.maxCellVoltageDeviation, BATTERY.isCellVoltageDeviationHigh, BATTERY.isVoltageLow, BATTERY.current [A], BATTERY.temperature [F], BATTERY.minTemperature [F], BATTERY.maxTemperature [F], BATTERY.usefulTime [s], BATTERY.goHomeTime [s], BATTERY.landTime [s], BATTERY.goHomeBattery, BATTERY.landBattery, BATTERY.safeFlyRadius, BATTERY.volumeConsume, BATTERY.status, BATTERY.goHomeStatus, BATTERY.goHomeCountdown, BATTERY.lowWarning, BATTERY.lowWarningGoHome, BATTERY.seriousLowWarning, BATTERY.seriousLowWarningLanding, BATTERY.timesCharged, MC.failSafeAction, HOME.latitude, HOME.longitude, HOME.distance [ft], HOME.height [ft], HOME.heightLimit [ft], HOME.isHomeRecord, HOME.goHomeMode, HOME.aircraftHeadDirection, HOME.isDynamicHomePointEnabled, HOME.isReachedLimitDistance, HOME.isReachedLimitHeight, HOME.isCompassCeleing, HOME.compassCeleStatus, HOME.isMultipleFlightModeEnabled, HOME.isBeginnerMode, HOME.isIOCEnabled, HOME.iocMode, HOME.goHomeHeight [ft], HOME.courseLockAngle, HOME.forceLandingHeight [ft], HOME.wind, HOME.dataRecorderFileIndex, RECOVER.appType, RECOVER.appVersion, RECOVER.aircraftName, RECOVER.aircraftSerial, RECOVER.cameraSerial, RECOVER.rcSerial, RECOVER.batterySerial, DETAILS.totalTime [s], DETAILS.totalDistance [ft], DETAILS.maxHeight [ft], DETAILS.maxHorizontalSpeed [MPH], DETAILS.maxVerticalSpeed [MPH], DETAILS.photoNum, DETAILS.videoTime [s], DETAILS.aircraftName, DETAILS.aircraftSerial, DETAILS.cameraSerial, DETAILS.rcSerial, DETAILS.batterySerial, DETAILS.appName, DETAILS.appType, DETAILS.appVersion, APPGPS.latitude, APPGPS.longitude, APPGPS.accuracy, APP.message, APP.tip, APP.warning
1,11/20/2018,27:41.6,0m 0.2s,0.2,39.89197546,-105.2622299,0,0,0.3,6402,0,0,0,0,0,0,0,0,4.5,4.7,-48.2,311.8,Starting Motors,Other,Takeoff (RC Assisted),14,5,TRUE,,Mavic 2 Enterprise,TRUE,FALSE,,Smart,RC,TRUE,TRUE,FALSE,,,TRUE,,FALSE,FALSE,FALSE,FALSE,FALSE,FALSE,FALSE,FALSE,FALSE,FALSE,0,Follow Yaw,0,0,-48.6,311.4,FALSE,FALSE,FALSE,FALSE,FALSE,TRUE,,TRUE,Card Too Slow,,,1024,1024,1024,1024,0,FALSE,FALSE,FALSE,FALSE,FALSE,0,FALSE,FALSE,FALSE,FALSE,,,,,16.569,FALSE,4.147,4.152,4.141,4.129,0.023,FALSE,FALSE,,,,,,,,,,,,,Idle,,,TRUE,,FALSE,,Go Home,,,,,,FALSE,,,FALSE,FALSE,FALSE,FALSE,0,FALSE,FALSE,FALSE,,,,,Calm,,Android, 4.8.0,dronefo...-Mavic 2 Enterprise,276DFAP001K3FQ,0K8HFA801103AV,0VECFAN0072UWQ,161AFAB6360172,182.3,6546.3,138.8,46.1,10.1,0,182,dronefo...-Mavic 2 Enterprise,276DFAP001K3FQ,0K8HFA801103AV,0VECFAN0072UWQ,161AFAB6360172,,Android, 4.8.0,,,,,,
2,11/20/2018,27:41.7,0m 0.3s,0.3,39.89197547,-105.2622299,0,0,0.3,6402,0,0,0,0,0,0,0,0,4.5,4.7,-48.2,311.8,Starting Motors,Other,Takeoff (RC Assisted),14,5,TRUE,,Mavic 2 Enterprise,TRUE,FALSE,,Smart,RC,TRUE,TRUE,FALSE,,,TRUE,,FALSE,FALSE,FALSE,FALSE,FALSE,FALSE,FALSE,FALSE,FALSE,FALSE,0,Follow Yaw,0,0,-48.6,311.4,FALSE,FALSE,FALSE,FALSE,FALSE,TRUE,,TRUE,Card Too Slow,,,1024,1024,1024,1024,0,FALSE,FALSE,FALSE,FALSE,FALSE,0,FALSE,FALSE,FALSE,FALSE,,,,,16.569,FALSE,4.147,4.152,4.141,4.129,0.023,FALSE,FALSE,,,,,,,,,,,,,Idle,,,TRUE,,FALSE,,Go Home,,,,,,FALSE,,,FALSE,FALSE,FALSE,FALSE,0,FALSE,FALSE,FALSE,,,,,Calm,,Android, 4.8.0,dronefo...-Mavic 2 Enterprise,276DFAP001K3FQ,0K8HFA801103AV,0VECFAN0072UWQ,161AFAB6360172,182.3,6546.3,138.8,46.1,10.1,0,182,dronefo...-Mavic 2 Enterprise,276DFAP001K3FQ,0K8HFA801103AV,0VECFAN0072UWQ,161AFAB6360172,,Android, 4.8.0,,,,,,
3,11/20/2018,27:41.8,0m 0.4s,0.4,39.89197532,-105.2622298,0,0,0.3,6402,0,0,0,0,0,0,0,0,4.5,4.8,-48.4,311.6,Starting Motors,Other,Takeoff (RC Assisted),14,5,TRUE,,Mavic 2 Enterprise,TRUE,FALSE,,Smart,RC,TRUE,TRUE,FALSE,,,TRUE,,FALSE,FALSE,FALSE,FALSE,FALSE,FALSE,FALSE,FALSE,FALSE,FALSE,0,Follow Yaw,0,0,-48.6,311.4,FALSE,FALSE,FALSE,FALSE,FALSE,TRUE,,TRUE,Card Too Slow,,,1024,1024,1024,1024,0,FALSE,FALSE,FALSE,FALSE,FALSE,0,FALSE,FALSE,FALSE,FALSE,,,,,16.569,FALSE,4.147,4.152,4.141,4.129,0.023,FALSE,FALSE,,,,,,,,,,,,,Idle,,,TRUE,,FALSE,,Go Home,,,,,,FALSE,,,FALSE,FALSE,FALSE,FALSE,0,FALSE,FALSE,FALSE,,,,,Calm,,Android, 4.8.0,dronefo...-Mavic 2 Enterprise,276DFAP001K3FQ,0K8HFA801103AV,0VECFAN0072UWQ,161AFAB6360172,182.3,6546.3,138.8,46.1,10.1,0,182,dronefo...-Mavic 2 Enterprise,276DFAP001K3FQ,0K8HFA801103AV,0VECFAN0072UWQ,161AFAB6360172,,Android, 4.8.0,,,,,,
4,11/20/2018,27:41.9,0m 0.5s,0.5,39.89197531,-105.2622298,0,0,0.3,6402,0,0,0,0,0,0,0,0,4.5,4.8,-48.4,311.6,Starting Motors,Other,Takeoff (RC Assisted),14,5,TRUE,,Mavic 2 Enterprise,TRUE,FALSE,,Smart,RC,TRUE,TRUE,FALSE,,,TRUE,,FALSE,FALSE,FALSE,FALSE,FALSE,FALSE,FALSE,FALSE,FALSE,FALSE,0,Follow Yaw,0,0,-48.6,311.4,FALSE,FALSE,FALSE,FALSE,FALSE,TRUE,,TRUE,Card Too Slow,,,1024,1024,1024,1024,0,FALSE,FALSE,FALSE,FALSE,FALSE,0,FALSE,FALSE,FALSE,FALSE,,,,,16.569,FALSE,4.147,4.152,4.141,4.129,0.023,FALSE,FALSE,,,,,,,,,,,,,Idle,,,TRUE,,FALSE,,Go Home,,,,,,FALSE,,,FALSE,FALSE,FALSE,FALSE,0,FALSE,FALSE,FALSE,,,,,Calm,,Android, 4.8.0,dronefo...-Mavic 2 Enterprise,276DFAP001K3FQ,0K8HFA801103AV,0VECFAN0072UWQ,161AFAB6360172,182.3,6546.3,138.8,46.1,10.1,0,182,dronefo...-Mavic 2 Enterprise,276DFAP001K3FQ,0K8HFA801103AV,0VECFAN0072UWQ,161AFAB6360172,,Android, 4.8.0,,,,,,
5,11/20/2018,27:42.0,0m 0.6s,0.6,39.89197533,-105.2622297,0,0,0.3,6402,0,0,0,0,0,0,0,0,4.5,4.8,-48.4,311.6,Starting Motors,Other,Takeoff (RC Assisted),14,5,TRUE,,Mavic 2 Enterprise,TRUE,FALSE,,Smart,RC,TRUE,TRUE,FALSE,,,TRUE,,FALSE,FALSE,FALSE,FALSE,FALSE,FALSE,FALSE,FALSE,FALSE,FALSE,0,Follow Yaw,0,0,-48.6,311.4,FALSE,FALSE,FALSE,FALSE,FALSE,TRUE,,TRUE,Card Too Slow,,,1024,1024,1024,1024,0,FALSE,FALSE,FALSE,FALSE,FALSE,0,FALSE,FALSE,FALSE,FALSE,,,,,16.569,FALSE,4.147,4.152,4.141,4.129,0.023,FALSE,FALSE,,,,,,,,,,,,,Idle,,,TRUE,,FALSE,,Go Home,,,,,,FALSE,,,FALSE,FALSE,FALSE,FALSE,0,FALSE,FALSE,FALSE,,,,,Calm,,Android, 4.8.0,dronefo...-Mavic 2 Enterprise,276DFAP001K3FQ,0K8HFA801103AV,0VECFAN0072UWQ,161AFAB6360172,182.3,6546.3,138.8,46.1,10.1,0,182,dronefo...-Mavic 2 Enterprise,276DFAP001K3FQ,0K8HFA801103AV,0VECFAN0072UWQ,161AFAB6360172,,Android, 4.8.0,,,,,,
6,11/20/2018,27:42.1,0m 0.7s,0.7,39.89197532,-105.2622296,0,0,0.3,6402,0,0,0,0,0,0,0,0,4.5,4.7,-48.3,311.7,Starting Motors,Other,Takeoff (RC Assisted),14,5,TRUE,,Mavic 2 Enterprise,TRUE,FALSE,,Smart,RC,TRUE,TRUE,FALSE,,,TRUE,,FALSE,FALSE,FALSE,FALSE,FALSE,FALSE,FALSE,FALSE,FALSE,FALSE,0,Follow Yaw,0,0,-48.6,311.4,FALSE,FALSE,FALSE,FALSE,FALSE,TRUE,,TRUE,Card Too Slow,,,1024,1024,1024,1024,0,FALSE,FALSE,FALSE,FALSE,FALSE,0,FALSE,FALSE,FALSE,FALSE,,,,,16.569,FALSE,4.147,4.152,4.141,4.129,0.023,FALSE,FALSE,,,,,,,,,,,,,Idle,,,TRUE,,FALSE,,Go Home,,,,,,FALSE,,,FALSE,FALSE,FALSE,FALSE,0,FALSE,FALSE,FALSE,,,,,Calm,,Android, 4.8.0,dronefo...-Mavic 2 Enterprise,276DFAP001K3FQ,0K8HFA801103AV,0VECFAN0072UWQ,161AFAB6360172,182.3,6546.3,138.8,46.1,10.1,0,182,dronefo...-Mavic 2 Enterprise,276DFAP001K3FQ,0K8HFA801103AV,0VECFAN0072UWQ,161AFAB6360172,,Android, 4.8.0,,,,,,
7,11/20/2018,27:42.2,0m 0.8s,0.8,39.89197533,-105.2622297,0,0,0.3,6402,0,0,0,0,0,0,0,0,4.5,4.7,-48.3,311.7,Starting Motors,Other,Takeoff (RC Assisted),14,5,TRUE,,Mavic 2 Enterprise,TRUE,FALSE,,Smart,RC,TRUE,TRUE,FALSE,,,TRUE,,FALSE,FALSE,FALSE,FALSE,FALSE,FALSE,FALSE,FALSE,FALSE,FALSE,0,Follow Yaw,0,0,-48.7,311.3,FALSE,FALSE,FALSE,FALSE,FALSE,TRUE,,TRUE,Card Too Slow,,,1024,1024,1024,1024,0,FALSE,FALSE,FALSE,FALSE,FALSE,0,FALSE,FALSE,FALSE,FALSE,82,,,,16.562,FALSE,4.147,4.152,4.141,4.129,0.023,FALSE,FALSE,,,,,0,1,0,15,10,5629.3,1443.4,,Idle,0,25,FALSE,10,TRUE,,Go Home,39.89196963,-105.262226,2.3,6128.6,393.7,TRUE,1,1,FALSE,FALSE,FALSE,FALSE,0,TRUE,FALSE,FALSE,Course Lock,98.4,,16.4,Calm,8,Android, 4.8.0,dronefo...-Mavic 2 Enterprise,276DFAP001K3FQ,0K8HFA801103AV,0VECFAN0072UWQ,161AFAB6360172,182.3,6546.3,138.8,46.1,10.1,0,182,dronefo...-Mavic 2 Enterprise,276DFAP001K3FQ,0K8HFA801103AV,0VECFAN0072UWQ,161AFAB6360172,,Android, 4.8.0,,,,Data Recorder File Index is 8.,,
8,11/20/2018,27:42.3,0m 0.9s,0.9,39.89197533,-105.2622297,0,0,0.3,6402,0,0,0,0,0,0,0,0,4.5,4.7,-48.3,311.7,Starting Motors,Other,Takeoff (RC Assisted),14,5,TRUE,,Mavic 2 Enterprise,TRUE,FALSE,,Smart,RC,TRUE,TRUE,FALSE,,,TRUE,,FALSE,FALSE,FALSE,FALSE,FALSE,FALSE,FALSE,FALSE,FALSE,FALSE,0,Follow Yaw,0,0,-48.7,311.3,FALSE,FALSE,FALSE,FALSE,FALSE,TRUE,,TRUE,Card Too Slow,,,1024,1024,1024,1024,0,FALSE,FALSE,FALSE,FALSE,FALSE,0,FALSE,FALSE,FALSE,FALSE,82,,,,16.562,FALSE,4.147,4.152,4.141,4.129,0.023,FALSE,FALSE,,,,,0,1,0,15,10,5629.3,1443.4,,Idle,0,25,FALSE,10,TRUE,,Go Home,39.89196963,-105.262226,2.3,6128.6,393.7,TRUE,1,1,FALSE,FALSE,FALSE,FALSE,0,TRUE,FALSE,FALSE,Course Lock,98.4,,16.4,Calm,8,Android, 4.8.0,dronefo...-Mavic 2 Enterprise,276DFAP001K3FQ,0K8HFA801103AV,0VECFAN0072UWQ,161AFAB6360172,182.3,6546.3,138.8,46.1,10.1,0,182,dronefo...-Mavic 2 Enterprise,276DFAP001K3FQ,0K8HFA801103AV,0VECFAN0072UWQ,161AFAB6360172,,Android, 4.8.0,,,,,,
9,11/20/2018,27:42.4,0m 1.0s,1,39.89197533,-105.2622296,0,0,0.3,6402,0,0,0,0,0,0,0,0,4.5,4.7,-48.3,311.7,Starting Motors,Other,Takeoff (RC Assisted),14,5,TRUE,,Mavic 2 Enterprise,TRUE,FALSE,,Smart,RC,TRUE,TRUE,FALSE,,,TRUE,,FALSE,FALSE,FALSE,FALSE,FALSE,FALSE,FALSE,FALSE,FALSE,FALSE,0,Follow Yaw,0,0,-48.7,311.3,FALSE,FALSE,FALSE,FALSE,FALSE,TRUE,,TRUE,Card Too Slow,,,1024,1024,1024,1024,0,FALSE,FALSE,FALSE,FALSE,FALSE,0,FALSE,FALSE,FALSE,FALSE,82,,,,16.562,FALSE,4.147,4.152,4.141,4.129,0.023,FALSE,FALSE,,,,,0,1,0,15,10,5629.3,1443.4,,Idle,0,25,FALSE,10,TRUE,,Go Home,39.89196963,-105.262226,2.3,6128.6,393.7,TRUE,1,1,FALSE,FALSE,FALSE,FALSE,0,TRUE,FALSE,FALSE,Course Lock,98.4,,16.4,Calm,8,Android, 4.8.0,dronefo...-Mavic 2 Enterprise,276DFAP001K3FQ,0K8HFA801103AV,0VECFAN0072UWQ,161AFAB6360172,182.3,6546.3,138.8,46.1,10.1,0,182,dronefo...-Mavic 2 Enterprise,276DFAP001K3FQ,0K8HFA801103AV,0VECFAN0072UWQ,161AFAB6360172,,Android, 4.8.0,,,,,,
10,11/20/2018,27:42.5,0m 1.1s,1.1,39.89197533,-105.2622295,0,0,0.3,6402,0,0,0,0,0,0,0,0,4.5,4.7,-48.4,311.6,Starting Motors,Other,Takeoff (RC Assisted),14,5,TRUE,,Mavic 2 Enterprise,TRUE,FALSE,,Smart,RC,TRUE,TRUE,FALSE,,,TRUE,,FALSE,FALSE,FALSE,FALSE,FALSE,FALSE,FALSE,FALSE,FALSE,FALSE,0,Follow Yaw,0,0,-48.7,311.3,FALSE,FALSE,FALSE,FALSE,FALSE,TRUE,,TRUE,Card Too Slow,,,1024,1024,1024,1024,0,FALSE,FALSE,FALSE,FALSE,FALSE,0,FALSE,FALSE,FALSE,FALSE,82,,,,16.562,FALSE,4.147,4.152,4.141,4.129,0.023,FALSE,FALSE,,,,,0,1,0,15,10,5629.3,1443.4,,Idle,0,25,FALSE,10,TRUE,,Go Home,39.89196963,-105.262226,2.3,6128.6,393.7,TRUE,1,1,FALSE,FALSE,FALSE,FALSE,0,TRUE,FALSE,FALSE,Course Lock,98.4,,16.4,Calm,8,Android, 4.8.0,dronefo...-Mavic 2 Enterprise,276DFAP001K3FQ,0K8HFA801103AV,0VECFAN0072UWQ,161AFAB6360172,182.3,6546.3,138.8,46.1,10.1,0,182,dronefo...-Mavic 2 Enterprise,276DFAP001K3FQ,0K8HFA801103AV,0VECFAN0072UWQ,161AFAB6360172,,Android, 4.8.0,,,,,,
11,11/20/2018,27:42.6,0m 1.2s,1.2,39.89197534,-105.2622297,0,0,0.3,6402,0,0,0,0,0,0,0,0,4.5,4.7,-48.4,311.6,Manual Takeoff,Other,Takeoff (RC Assisted),14,5,TRUE,,Mavic 2 Enterprise,TRUE,FALSE,,Smart,RC,TRUE,TRUE,FALSE,,,TRUE,,FALSE,FALSE,FALSE,FALSE,FALSE,FALSE,FALSE,FALSE,FALSE,FALSE,0,Follow Yaw,0,0,-48.7,311.3,FALSE,FALSE,FALSE,FALSE,FALSE,TRUE,,TRUE,Card Too Slow,,,1024,1024,1024,1024,0,FALSE,FALSE,FALSE,FALSE,FALSE,0,FALSE,FALSE,FALSE,FALSE,82,,,,16.457,FALSE,4.122,4.124,4.112,4.099,0.025,FALSE,FALSE,,,,,0,1,0,15,10,5629.3,1443.4,,Idle,0,25,FALSE,10,TRUE,,Go Home,39.89196963,-105.262226,2.3,6128.6,393.7,TRUE,1,1,FALSE,FALSE,FALSE,FALSE,0,TRUE,FALSE,FALSE,Course Lock,98.4,,16.4,Calm,8,Android, 4.8.0,dronefo...-Mavic 2 Enterprise,276DFAP001K3FQ,0K8HFA801103AV,0VECFAN0072UWQ,161AFAB6360172,182.3,6546.3,138.8,46.1,10.1,0,182,dronefo...-Mavic 2 Enterprise,276DFAP001K3FQ,0K8HFA801103AV,0VECFAN0072UWQ,161AFAB6360172,,Android, 4.8.0,,,,,,
12,11/20/2018,27:42.7,0m 1.3s,1.3,39.89197534,-105.2622297,0,0,0.3,6402,0,0,0,0,0,0,0,0,4.5,4.7,-48.4,311.6,Manual Takeoff,Other,Takeoff (RC Assisted),14,5,TRUE,,Mavic 2 Enterprise,TRUE,FALSE,,Smart,RC,TRUE,TRUE,FALSE,,,TRUE,,FALSE,FALSE,FALSE,FALSE,FALSE,FALSE,FALSE,FALSE,FALSE,FALSE,0,Follow Yaw,0,0,-48.6,311.4,FALSE,FALSE,FALSE,FALSE,FALSE,TRUE,,TRUE,Card Too Slow,,,1024,1024,1024,1024,0,FALSE,FALSE,FALSE,FALSE,FALSE,0,FALSE,FALSE,FALSE,FALSE,82,,,,16.457,FALSE,4.122,4.124,4.112,4.099,0.025,FALSE,FALSE,,,,,0,1,0,15,10,5629.3,1443.4,,Idle,0,25,FALSE,10,TRUE,,Go Home,39.89196963,-105.262226,2.3,6128.6,393.7,TRUE,1,1,FALSE,FALSE,FALSE,FALSE,0,TRUE,FALSE,FALSE,Course Lock,98.4,,16.4,Calm,8,Android, 4.8.0,dronefo...-Mavic 2 Enterprise,276DFAP001K3FQ,0K8HFA801103AV,0VECFAN0072UWQ,161AFAB6360172,182.3,6546.3,138.8,46.1,10.1,0,182,dronefo...-Mavic 2 Enterprise,276DFAP001K3FQ,0K8HFA801103AV,0VECFAN0072UWQ,161AFAB6360172,,Android, 4.8.0,,,,,,
13,11/20/2018,27:42.8,0m 1.4s,1.4,39.89197534,-105.2622297,0,0,0.3,6402,1.1,1.1,0,0,0,0,0,0,4.5,4.7,-48.4,311.6,Manual Takeoff,Other,Takeoff (RC Assisted),14,5,TRUE,,Mavic 2 Enterprise,TRUE,FALSE,,Smart,RC,TRUE,TRUE,FALSE,,,TRUE,,FALSE,FALSE,FALSE,FALSE,FALSE,FALSE,FALSE,FALSE,FALSE,FALSE,0,Follow Yaw,0,0,-48.7,311.3,FALSE,FALSE,FALSE,FALSE,FALSE,TRUE,,TRUE,Card Too Slow,,,1024,1024,1024,1024,0,FALSE,FALSE,FALSE,FALSE,FALSE,0,FALSE,FALSE,FALSE,FALSE,82,,,,16.457,FALSE,4.122,4.124,4.112,4.099,0.025,FALSE,FALSE,,,,,0,1,0,15,10,5629.3,1443.4,,Idle,0,25,FALSE,10,TRUE,,Go Home,39.89196963,-105.262226,2.3,6128.6,393.7,TRUE,1,1,FALSE,FALSE,FALSE,FALSE,0,TRUE,FALSE,FALSE,Course Lock,98.4,,16.4,Calm,8,Android, 4.8.0,dronefo...-Mavic 2 Enterprise,276DFAP001K3FQ,0K8HFA801103AV,0VECFAN0072UWQ,161AFAB6360172,182.3,6546.3,138.8,46.1,10.1,0,182,dronefo...-Mavic 2 Enterprise,276DFAP001K3FQ,0K8HFA801103AV,0VECFAN0072UWQ,161AFAB6360172,,Android, 4.8.0,,,,,,
14,11/20/2018,27:42.9,0m 1.5s,1.5,39.89197534,-105.2622297,0,0,0.3,6402,1.1,1.1,0,0,0,0,0,0,4.5,4.7,-48.4,311.6,Manual Takeoff,Other,Takeoff (RC Assisted),14,5,TRUE,,Mavic 2 Enterprise,TRUE,FALSE,,Smart,RC,TRUE,TRUE,FALSE,,,TRUE,,FALSE,FALSE,FALSE,FALSE,FALSE,FALSE,FALSE,FALSE,FALSE,FALSE,0,Follow Yaw,0,0,-48.7,311.3,FALSE,FALSE,FALSE,FALSE,FALSE,TRUE,,TRUE,Card Too Slow,,,1024,1024,1024,1024,0,FALSE,FALSE,FALSE,FALSE,FALSE,0,FALSE,FALSE,FALSE,FALSE,82,,,,16.457,FALSE,4.122,4.124,4.112,4.099,0.025,FALSE,FALSE,,,,,0,1,0,15,10,5629.3,1443.4,,Idle,0,25,FALSE,10,TRUE,,Go Home,39.89196963,-105.262226,2.3,6128.6,393.7,TRUE,1,1,FALSE,FALSE,FALSE,FALSE,0,TRUE,FALSE,FALSE,Course Lock,98.4,,16.4,Calm,8,Android, 4.8.0,dronefo...-Mavic 2 Enterprise,276DFAP001K3FQ,0K8HFA801103AV,0VECFAN0072UWQ,161AFAB6360172,182.3,6546.3,138.8,46.1,10.1,0,182,dronefo...-Mavic 2 Enterprise,276DFAP001K3FQ,0K8HFA801103AV,0VECFAN0072UWQ,161AFAB6360172,,Android, 4.8.0,,,,,,
15,11/20/2018,27:43.0,0m 1.6s,1.6,39.89197535,-105.2622296,0,0,0.3,6402,0,1.1,0,0,0,0,0,0,4.5,4.7,-48.4,311.6,Manual Takeoff,Other,Takeoff (RC Assisted),14,5,TRUE,,Mavic 2 Enterprise,TRUE,FALSE,,Smart,RC,TRUE,TRUE,FALSE,,,TRUE,,FALSE,FALSE,FALSE,FALSE,FALSE,FALSE,FALSE,FALSE,FALSE,FALSE,0,Follow Yaw,0,0,-48.7,311.3,FALSE,FALSE,FALSE,FALSE,FALSE,TRUE,,TRUE,Card Too Slow,,,1024,1024,1024,1024,0,FALSE,FALSE,FALSE,FALSE,FALSE,0,FALSE,FALSE,FALSE,FALSE,82,,,,16.457,FALSE,4.122,4.124,4.112,4.099,0.025,FALSE,FALSE,,,,,0,1,0,15,10,5629.3,1443.4,,Idle,0,25,FALSE,10,TRUE,,Go Home,39.89196963,-105.262226,2.3,6128.6,393.7,TRUE,1,1,FALSE,FALSE,FALSE,FALSE,0,TRUE,FALSE,FALSE,Course Lock,98.4,,16.4,Calm,8,Android, 4.8.0,dronefo...-Mavic 2 Enterprise,276DFAP001K3FQ,0K8HFA801103AV,0VECFAN0072UWQ,161AFAB6360172,182.3,6546.3,138.8,46.1,10.1,0,182,dronefo...-Mavic 2 Enterprise,276DFAP001K3FQ,0K8HFA801103AV,0VECFAN0072UWQ,161AFAB6360172,,Android, 4.8.0,,,,,,
16,11/20/2018,27:43.1,0m 1.7s,1.7,39.89197534,-105.2622296,0,0,0.3,6402,1.1,1.1,0,0,0,0,0,0,4.5,4.7,-48.4,311.6,Manual Takeoff,Other,Takeoff (RC Assisted),14,5,TRUE,,Mavic 2 Enterprise,TRUE,FALSE,,Smart,RC,TRUE,TRUE,FALSE,,,TRUE,,FALSE,FALSE,FALSE,FALSE,FALSE,FALSE,FALSE,FALSE,FALSE,FALSE,0,Follow Yaw,0,0,-48.7,311.3,FALSE,FALSE,FALSE,FALSE,FALSE,TRUE,,TRUE,Card Too Slow,,,1024,1024,1024,1024,0,FALSE,FALSE,FALSE,FALSE,FALSE,0,FALSE,FALSE,FALSE,FALSE,82,,,,16.457,FALSE,4.122,4.124,4.112,4.099,0.025,FALSE,FALSE,,,,,0,1,0,15,10,5629.3,1443.4,,Idle,0,25,FALSE,10,TRUE,,Go Home,39.89196963,-105.262226,2.3,6128.6,393.7,TRUE,1,1,FALSE,FALSE,FALSE,FALSE,0,TRUE,FALSE,FALSE,Course Lock,98.4,,16.4,Calm,8,Android, 4.8.0,dronefo...-Mavic 2 Enterprise,276DFAP001K3FQ,0K8HFA801103AV,0VECFAN0072UWQ,161AFAB6360172,182.3,6546.3,138.8,46.1,10.1,0,182,dronefo...-Mavic 2 Enterprise,276DFAP001K3FQ,0K8HFA801103AV,0VECFAN0072UWQ,161AFAB6360172,,Android, 4.8.0,,,,,,
17,11/20/2018,27:43.3,0m 1.8s,1.8,39.89197549,-105.2622296,0,0,0.3,6402,0,1.1,0,0,0,0,0,0,4.5,4.7,-48.4,311.6,Manual Takeoff,Other,Takeoff (RC Assisted),14,5,TRUE,,Mavic 2 Enterprise,TRUE,FALSE,,Smart,RC,TRUE,TRUE,FALSE,,,TRUE,,FALSE,FALSE,FALSE,FALSE,FALSE,FALSE,FALSE,FALSE,FALSE,FALSE,0,Follow Yaw,0,0,-48.7,311.3,FALSE,FALSE,FALSE,FALSE,FALSE,TRUE,,TRUE,Card Too Slow,,,1024,1024,1570,1096,0,FALSE,FALSE,FALSE,FALSE,FALSE,0,FALSE,FALSE,FALSE,FALSE,82,,,,16.466,FALSE,4.122,4.124,4.112,4.099,0.025,FALSE,FALSE,,,,,0,1,0,15,10,5848.7,1499.66,,Idle,0,25,FALSE,10,TRUE,,Go Home,39.89196963,-105.262226,2.4,6128.6,393.7,TRUE,1,1,FALSE,FALSE,FALSE,FALSE,0,TRUE,FALSE,FALSE,Course Lock,98.4,,16.4,Calm,8,Android, 4.8.0,dronefo...-Mavic 2 Enterprise,276DFAP001K3FQ,0K8HFA801103AV,0VECFAN0072UWQ,161AFAB6360172,182.3,6546.3,138.8,46.1,10.1,0,182,dronefo...-Mavic 2 Enterprise,276DFAP001K3FQ,0K8HFA801103AV,0VECFAN0072UWQ,161AFAB6360172,,Android, 4.8.0,,,,,,
18,11/20/2018,27:43.4,0m 1.9s,1.9,39.89197551,-105.2622296,0,0,0.3,6402,0,1.1,0,0,0,0,0,0,4.5,4.7,-48.4,311.6,Manual Takeoff,Other,Takeoff (RC Assisted),14,5,TRUE,,Mavic 2 Enterprise,TRUE,FALSE,,Smart,RC,TRUE,TRUE,FALSE,,,TRUE,,FALSE,FALSE,FALSE,FALSE,FALSE,FALSE,FALSE,FALSE,FALSE,FALSE,0,Follow Yaw,0,0,-48.7,311.3,FALSE,FALSE,FALSE,FALSE,FALSE,TRUE,,TRUE,Card Too Slow,,,1024,1024,1684,1299,0,FALSE,FALSE,FALSE,FALSE,FALSE,0,FALSE,FALSE,FALSE,FALSE,82,,,,16.466,FALSE,4.122,4.124,4.112,4.099,0.025,FALSE,FALSE,,,,,0,1,0,15,10,5848.7,1499.66,,Idle,0,25,FALSE,10,TRUE,,Go Home,39.89196963,-105.262226,2.4,6128.6,393.7,TRUE,1,1,FALSE,FALSE,FALSE,FALSE,0,TRUE,FALSE,FALSE,Course Lock,98.4,,16.4,Calm,8,Android, 4.8.0,dronefo...-Mavic 2 Enterprise,276DFAP001K3FQ,0K8HFA801103AV,0VECFAN0072UWQ,161AFAB6360172,182.3,6546.3,138.8,46.1,10.1,0,182,dronefo...-Mavic 2 Enterprise,276DFAP001K3FQ,0K8HFA801103AV,0VECFAN0072UWQ,161AFAB6360172,,Android, 4.8.0,,,,,,
19,11/20/2018,27:43.5,0m 2.0s,2,39.89197549,-105.2622296,0,0,0.3,6402,1.5,1.5,0,0,0,0,0,0,4.5,4.7,-48.4,311.6,Manual Takeoff,Other,Takeoff (RC Assisted),14,5,TRUE,,Mavic 2 Enterprise,TRUE,FALSE,,Smart,RC,TRUE,TRUE,FALSE,,,TRUE,,FALSE,FALSE,FALSE,FALSE,FALSE,FALSE,FALSE,FALSE,FALSE,FALSE,0,Follow Yaw,0,0,-48.7,311.3,FALSE,FALSE,FALSE,FALSE,FALSE,TRUE,,TRUE,Card Too Slow,,,1024,1024,1684,1346,0,FALSE,FALSE,FALSE,FALSE,FALSE,0,FALSE,FALSE,FALSE,FALSE,82,,,,16.466,FALSE,4.122,4.124,4.112,4.099,0.025,FALSE,FALSE,,,,,0,1,0,15,10,5848.7,1499.66,,Idle,0,25,FALSE,10,TRUE,,Go Home,39.89196963,-105.262226,2.4,6128.6,393.7,TRUE,1,1,FALSE,FALSE,FALSE,FALSE,0,TRUE,FALSE,FALSE,Course Lock,98.4,,16.4,Calm,8,Android, 4.8.0,dronefo...-Mavic 2 Enterprise,276DFAP001K3FQ,0K8HFA801103AV,0VECFAN0072UWQ,161AFAB6360172,182.3,6546.3,138.8,46.1,10.1,0,182,dronefo...-Mavic 2 Enterprise,276DFAP001K3FQ,0K8HFA801103AV,0VECFAN0072UWQ,161AFAB6360172,,Android, 4.8.0,,,,,,
20,11/20/2018,27:43.6,0m 2.1s,2.1,39.8919755,-105.2622296,0,0,0.3,6402,0,1.5,0,0,0,0,0,0,4.5,4.7,-48.4,311.6,Manual Takeoff,Other,Takeoff (RC Assisted),14,5,TRUE,,Mavic 2 Enterprise,TRUE,FALSE,,Smart,RC,TRUE,TRUE,FALSE,,,TRUE,,FALSE,FALSE,FALSE,FALSE,FALSE,FALSE,FALSE,FALSE,FALSE,FALSE,0,Follow Yaw,0,0,-48.7,311.3,FALSE,FALSE,FALSE,FALSE,FALSE,TRUE,,TRUE,Card Too Slow,,,1024,1024,1684,1349,0,FALSE,FALSE,FALSE,FALSE,FALSE,0,FALSE,FALSE,FALSE,FALSE,82,,,,16.54,FALSE,4.14,4.144,4.133,4.123,0.025,FALSE,FALSE,,,,,0,1,0,15,10,5848.7,1499.66,,Idle,0,25,FALSE,10,TRUE,,Go Home,39.89196963,-105.262226,2.4,6128.6,393.7,TRUE,1,1,FALSE,FALSE,FALSE,FALSE,0,TRUE,FALSE,FALSE,Course Lock,98.4,,16.4,Calm,8,Android, 4.8.0,dronefo...-Mavic 2 Enterprise,276DFAP001K3FQ,0K8HFA801103AV,0VECFAN0072UWQ,161AFAB6360172,182.3,6546.3,138.8,46.1,10.1,0,182,dronefo...-Mavic 2 Enterprise,276DFAP001K3FQ,0K8HFA801103AV,0VECFAN0072UWQ,161AFAB6360172,,Android, 4.8.0,,,,,,
21,11/20/2018,27:43.6,0m 2.2s,2.2,39.89197548,-105.2622297,0,0,0.3,6402,1.1,1.5,0,0,0,0,0,0,4.5,4.7,-48.4,311.6,Manual Takeoff,Other,Takeoff (RC Assisted),14,5,TRUE,,Mavic 2 Enterprise,TRUE,FALSE,,Smart,RC,TRUE,TRUE,FALSE,,,TRUE,,FALSE,FALSE,FALSE,FALSE,FALSE,FALSE,FALSE,FALSE,FALSE,FALSE,0,Follow Yaw,0,0,-48.7,311.3,FALSE,FALSE,FALSE,FALSE,FALSE,TRUE,,TRUE,Card Too Slow,,,1024,1024,1684,1349,0,FALSE,FALSE,FALSE,FALSE,FALSE,0,FALSE,FALSE,FALSE,FALSE,82,,,,16.54,FALSE,4.14,4.144,4.133,4.123,0.025,FALSE,FALSE,,,,,0,1,0,15,10,5848.7,1499.66,,Idle,0,25,FALSE,10,TRUE,,Go Home,39.89196963,-105.262226,2.4,6128.6,393.7,TRUE,1,1,FALSE,FALSE,FALSE,FALSE,0,TRUE,FALSE,FALSE,Course Lock,98.4,,16.4,Calm,8,Android, 4.8.0,dronefo...-Mavic 2 Enterprise,276DFAP001K3FQ,0K8HFA801103AV,0VECFAN0072UWQ,161AFAB6360172,182.3,6546.3,138.8,46.1,10.1,0,182,dronefo...-Mavic 2 Enterprise,276DFAP001K3FQ,0K8HFA801103AV,0VECFAN0072UWQ,161AFAB6360172,,Android, 4.8.0,,,,,,
22,11/20/2018,27:43.8,0m 2.3s,2.3,39.8919755,-105.2622297,0,0,0.3,6402,0,1.5,0,0,0,0,0,0,4.4,4.8,-48.4,311.6,Manual Takeoff,Other,Takeoff (RC Assisted),14,5,TRUE,,Mavic 2 Enterprise,TRUE,FALSE,,Smart,RC,TRUE,TRUE,FALSE,,,TRUE,,FALSE,FALSE,FALSE,FALSE,FALSE,FALSE,FALSE,FALSE,FALSE,FALSE,0,Follow Yaw,0,0,-48.7,311.3,FALSE,FALSE,FALSE,FALSE,FALSE,TRUE,,TRUE,Card Too Slow,,,1024,1024,1684,1348,0,FALSE,FALSE,FALSE,FALSE,FALSE,0,FALSE,FALSE,FALSE,FALSE,82,,,,16.54,FALSE,4.14,4.144,4.133,4.123,0.025,FALSE,FALSE,,,,,0,1,0,15,10,5848.7,1499.66,,Idle,0,25,FALSE,10,TRUE,,Go Home,39.89196963,-105.262226,2.4,6128.6,393.7,TRUE,1,1,FALSE,FALSE,FALSE,FALSE,0,TRUE,FALSE,FALSE,Course Lock,98.4,,16.4,Calm,8,Android, 4.8.0,dronefo...-Mavic 2 Enterprise,276DFAP001K3FQ,0K8HFA801103AV,0VECFAN0072UWQ,161AFAB6360172,182.3,6546.3,138.8,46.1,10.1,0,182,dronefo...-Mavic 2 Enterprise,276DFAP001K3FQ,0K8HFA801103AV,0VECFAN0072UWQ,161AFAB6360172,,Android, 4.8.0,,,,,,
23,11/20/2018,27:43.9,0m 2.4s,2.4,39.89197548,-105.2622297,0,0,0.3,6402,0,1.5,0,0,0,0,0,0,3.9,4.9,-48.4,311.6,Manual Takeoff,Other,Takeoff (RC Assisted),14,5,TRUE,,Mavic 2 Enterprise,TRUE,FALSE,,Smart,RC,TRUE,TRUE,FALSE,,,TRUE,,FALSE,FALSE,FALSE,FALSE,FALSE,FALSE,FALSE,FALSE,FALSE,FALSE,0,Follow Yaw,0,0,-48.7,311.3,FALSE,FALSE,FALSE,FALSE,FALSE,TRUE,,TRUE,Card Too Slow,,,1024,1024,1684,1344,0,FALSE,FALSE,FALSE,FALSE,FALSE,0,FALSE,FALSE,FALSE,FALSE,82,,,,16.54,FALSE,4.14,4.144,4.133,4.123,0.025,FALSE,FALSE,,,,,0,1,0,15,10,5848.7,1499.66,,Idle,0,25,FALSE,10,TRUE,,Go Home,39.89196963,-105.262226,2.4,6128.6,393.7,TRUE,1,1,FALSE,FALSE,FALSE,FALSE,0,TRUE,FALSE,FALSE,Course Lock,98.4,,16.4,Calm,8,Android, 4.8.0,dronefo...-Mavic 2 Enterprise,276DFAP001K3FQ,0K8HFA801103AV,0VECFAN0072UWQ,161AFAB6360172,182.3,6546.3,138.8,46.1,10.1,0,182,dronefo...-Mavic 2 Enterprise,276DFAP001K3FQ,0K8HFA801103AV,0VECFAN0072UWQ,161AFAB6360172,,Android, 4.8.0,,,,,,
24,11/20/2018,27:44.0,0m 2.5s,2.5,39.8919755,-105.2622296,0,0,0.3,6402,0,1.5,0,0,0,0,0,0,0.8,5,-48.2,311.8,Manual Takeoff,Other,Takeoff (RC Assisted),14,5,TRUE,,Mavic 2 Enterprise,TRUE,FALSE,,Smart,RC,TRUE,TRUE,FALSE,,,TRUE,,FALSE,FALSE,FALSE,FALSE,FALSE,FALSE,FALSE,FALSE,FALSE,FALSE,0,Follow Yaw,0,0,-48.7,311.3,FALSE,FALSE,FALSE,FALSE,FALSE,TRUE,,TRUE,Card Too Slow,,,1024,1024,1684,1319,0,FALSE,FALSE,FALSE,FALSE,FALSE,0,FALSE,FALSE,FALSE,FALSE,82,,,,16.54,FALSE,4.14,4.144,4.133,4.123,0.025,FALSE,FALSE,,,,,0,1,0,15,10,5848.7,1499.66,,Idle,0,25,FALSE,10,TRUE,,Go Home,39.89196963,-105.262226,2.4,6128.6,393.7,TRUE,1,1,FALSE,FALSE,FALSE,FALSE,0,TRUE,FALSE,FALSE,Course Lock,98.4,,16.4,Calm,8,Android, 4.8.0,dronefo...-Mavic 2 Enterprise,276DFAP001K3FQ,0K8HFA801103AV,0VECFAN0072UWQ,161AFAB6360172,182.3,6546.3,138.8,46.1,10.1,0,182,dronefo...-Mavic 2 Enterprise,276DFAP001K3FQ,0K8HFA801103AV,0VECFAN0072UWQ,161AFAB6360172,,Android, 4.8.0,,,,,,
25,11/20/2018,27:44.1,0m 2.6s,2.6,39.89197552,-105.2622296,0,0,0.3,6402,0,1.5,0,0,0,0,-0.2,0,-2.3,3.1,-47.6,312.4,Manual Takeoff,Other,,14,5,TRUE,,Mavic 2 Enterprise,TRUE,FALSE,,Smart,RC,FALSE,TRUE,FALSE,,,TRUE,,FALSE,FALSE,FALSE,FALSE,FALSE,FALSE,FALSE,FALSE,FALSE,FALSE,0,Follow Yaw,0,0,-48.5,311.5,FALSE,FALSE,FALSE,FALSE,FALSE,TRUE,,TRUE,Card Too Slow,,,1024,1024,1684,1301,0,FALSE,FALSE,FALSE,FALSE,FALSE,0,FALSE,FALSE,FALSE,FALSE,82,,,,16.54,FALSE,4.14,4.144,4.133,4.123,0.025,FALSE,FALSE,,,,,0,1,0,15,10,5848.7,1499.66,,Idle,0,25,FALSE,10,TRUE,,Go Home,39.89196963,-105.262226,2.4,6128.6,393.7,TRUE,1,1,FALSE,FALSE,FALSE,FALSE,0,TRUE,FALSE,FALSE,Course Lock,98.4,,16.4,Calm,8,Android, 4.8.0,dronefo...-Mavic 2 Enterprise,276DFAP001K3FQ,0K8HFA801103AV,0VECFAN0072UWQ,161AFAB6360172,182.3,6546.3,138.8,46.1,10.1,0,182,dronefo...-Mavic 2 Enterprise,276DFAP001K3FQ,0K8HFA801103AV,0VECFAN0072UWQ,161AFAB6360172,,Android, 4.8.0,,,,,,
26,11/20/2018,27:44.2,0m 2.7s,2.7,39.89197564,-105.2622295,0,0,0.3,6402,0,1.5,0.2,0.2,0,0,-0.7,0,-1.7,0.7,-46.4,313.6,P-GPS,Other,,14,5,TRUE,,Mavic 2 Enterprise,TRUE,FALSE,,Smart,RC,FALSE,TRUE,FALSE,,,TRUE,,FALSE,FALSE,FALSE,FALSE,FALSE,FALSE,FALSE,FALSE,FALSE,FALSE,0,Follow Yaw,0,0,-48.3,311.7,FALSE,FALSE,FALSE,FALSE,FALSE,TRUE,,TRUE,Card Too Slow,,,1024,1024,1684,1296,0,FALSE,FALSE,FALSE,FALSE,FALSE,0,FALSE,FALSE,FALSE,FALSE,82,,,,16.54,FALSE,4.14,4.144,4.133,4.123,0.025,FALSE,FALSE,,,,,0,1,0,15,10,5848.7,1499.66,,Idle,0,25,FALSE,10,TRUE,,Go Home,39.89196963,-105.262226,2.4,6128.6,393.7,TRUE,1,1,FALSE,FALSE,FALSE,FALSE,0,TRUE,FALSE,FALSE,Course Lock,98.4,,16.4,Calm,8,Android, 4.8.0,dronefo...-Mavic 2 Enterprise,276DFAP001K3FQ,0K8HFA801103AV,0VECFAN0072UWQ,161AFAB6360172,182.3,6546.3,138.8,46.1,10.1,0,182,dronefo...-Mavic 2 Enterprise,276DFAP001K3FQ,0K8HFA801103AV,0VECFAN0072UWQ,161AFAB6360172,,Android, 4.8.0,,,,,,
27,11/20/2018,27:44.3,0m 2.8s,2.8,39.89197562,-105.2622293,0,0,0.7,6402,0,1.5,0.5,0.5,0,0,-1.1,0,-0.3,-0.9,-46.2,313.8,P-GPS,Other,,14,5,TRUE,,Mavic 2 Enterprise,TRUE,FALSE,,Smart,RC,FALSE,TRUE,FALSE,,,TRUE,,FALSE,FALSE,FALSE,FALSE,FALSE,FALSE,FALSE,FALSE,FALSE,FALSE,0,Follow Yaw,0,0,-47.5,312.5,FALSE,FALSE,FALSE,FALSE,FALSE,TRUE,,TRUE,Card Too Slow,,,1024,1024,1684,1280,0,FALSE,FALSE,FALSE,FALSE,FALSE,0,FALSE,FALSE,FALSE,FALSE,82,,,,16.511,FALSE,4.14,4.144,4.133,4.123,0.025,FALSE,FALSE,,,,,0,0,0,15,10,6514.7,1670.44,,Idle,0,25,FALSE,10,TRUE,,Go Home,39.89197555,-105.2622296,0,6128.6,393.7,TRUE,1,1,FALSE,FALSE,FALSE,FALSE,0,TRUE,FALSE,FALSE,Course Lock,98.4,,16.4,Calm,8,Android, 4.8.0,dronefo...-Mavic 2 Enterprise,276DFAP001K3FQ,0K8HFA801103AV,0VECFAN0072UWQ,161AFAB6360172,182.3,6546.3,138.8,46.1,10.1,0,182,dronefo...-Mavic 2 Enterprise,276DFAP001K3FQ,0K8HFA801103AV,0VECFAN0072UWQ,161AFAB6360172,,Android, 4.8.0,,,,Home Point Updated.,,
28,11/20/2018,27:44.4,0m 2.9s,2.9,39.89197578,-105.2622292,0.3,0.3,0.7,6402,0,1.5,0.2,0.5,0,0,-1.6,0,0.9,-1.6,-45.8,314.2,P-GPS,Other,,14,5,TRUE,,Mavic 2 Enterprise,TRUE,FALSE,,Smart,RC,FALSE,TRUE,FALSE,,,TRUE,,FALSE,FALSE,FALSE,FALSE,FALSE,FALSE,FALSE,FALSE,FALSE,FALSE,0,Follow Yaw,0,0,-46.8,313.2,FALSE,FALSE,FALSE,FALSE,FALSE,TRUE,,TRUE,Card Too Slow,,,1024,1024,1684,1279,0,FALSE,FALSE,FALSE,FALSE,FALSE,0,FALSE,FALSE,FALSE,FALSE,82,,,,16.511,FALSE,4.14,4.144,4.133,4.123,0.025,FALSE,FALSE,,,,,0,0,0,15,10,6514.7,1670.44,,Idle,0,25,FALSE,10,TRUE,,Go Home,39.89197555,-105.2622296,0,6128.6,393.7,TRUE,1,1,FALSE,FALSE,FALSE,FALSE,0,TRUE,FALSE,FALSE,Course Lock,98.4,,16.4,Calm,8,Android, 4.8.0,dronefo...-Mavic 2 Enterprise,276DFAP001K3FQ,0K8HFA801103AV,0VECFAN0072UWQ,161AFAB6360172,182.3,6546.3,138.8,46.1,10.1,0,182,dronefo...-Mavic 2 Enterprise,276DFAP001K3FQ,0K8HFA801103AV,0VECFAN0072UWQ,161AFAB6360172,,Android, 4.8.0,,,,,,
29,11/20/2018,27:44.5,0m 3.0s,3,39.89197587,-105.2622293,0.7,0.7,0.7,6403,0,1.5,0.2,0.5,0.2,0.2,-2,0,2,-1.9,-45.2,314.8,P-GPS,Other,,14,5,TRUE,,Mavic 2 Enterprise,TRUE,FALSE,,Smart,RC,FALSE,TRUE,FALSE,,,TRUE,,FALSE,FALSE,FALSE,FALSE,FALSE,FALSE,FALSE,FALSE,FALSE,FALSE,0,Follow Yaw,0,0,-46.2,313.8,FALSE,FALSE,FALSE,FALSE,FALSE,TRUE,,TRUE,Card Too Slow,,,1024,1024,1684,1290,0,FALSE,FALSE,FALSE,FALSE,FALSE,0,FALSE,FALSE,FALSE,FALSE,82,,,,16.511,FALSE,4.14,4.144,4.133,4.123,0.025,FALSE,FALSE,,,,,0,0,0,15,10,6514.7,1670.44,,Idle,0,25,FALSE,10,TRUE,,Go Home,39.89197555,-105.2622296,0,6128.6,393.7,TRUE,1,1,FALSE,FALSE,FALSE,FALSE,0,TRUE,FALSE,FALSE,Course Lock,98.4,,16.4,Calm,8,Android, 4.8.0,dronefo...-Mavic 2 Enterprise,276DFAP001K3FQ,0K8HFA801103AV,0VECFAN0072UWQ,161AFAB6360172,182.3,6546.3,138.8,46.1,10.1,0,182,dronefo...-Mavic 2 Enterprise,276DFAP001K3FQ,0K8HFA801103AV,0VECFAN0072UWQ,161AFAB6360172,,Android, 4.8.0,,,,,,
30,11/20/2018,27:44.6,0m 3.1s,3.1,39.89197598,-105.2622292,1,1,1,6403,0,1.5,0.2,0.5,0.2,0.2,-2.5,0,0.9,-2.6,-44.4,315.6,P-GPS,Other,,14,5,TRUE,,Mavic 2 Enterprise,TRUE,FALSE,,Smart,RC,FALSE,TRUE,FALSE,,,TRUE,,FALSE,FALSE,FALSE,FALSE,FALSE,FALSE,FALSE,FALSE,FALSE,FALSE,0,Follow Yaw,0,0,-45.6,314.4,FALSE,FALSE,FALSE,FALSE,FALSE,TRUE,,TRUE,Card Too Slow,,,1024,1024,1684,1332,0,FALSE,FALSE,FALSE,FALSE,FALSE,0,FALSE,FALSE,FALSE,FALSE,82,,,,16.511,FALSE,4.14,4.144,4.133,4.123,0.025,FALSE,FALSE,,,,,0,0,0,15,10,6514.7,1670.44,,Idle,0,25,FALSE,10,TRUE,,Go Home,39.89197555,-105.2622296,0,6128.6,393.7,TRUE,1,1,FALSE,FALSE,FALSE,FALSE,0,TRUE,FALSE,FALSE,Course Lock,98.4,,16.4,Calm,8,Android, 4.8.0,dronefo...-Mavic 2 Enterprise,276DFAP001K3FQ,0K8HFA801103AV,0VECFAN0072UWQ,161AFAB6360172,182.3,6546.3,138.8,46.1,10.1,0,182,dronefo...-Mavic 2 Enterprise,276DFAP001K3FQ,0K8HFA801103AV,0VECFAN0072UWQ,161AFAB6360172,,Android, 4.8.0,,,,,,
31,11/20/2018,27:44.7,0m 3.2s,3.2,39.89197619,-105.2622287,1.3,1.3,1.6,6403,1.1,1.5,0,0.5,0.2,0.2,-3.1,0,0.1,-2,-43.6,316.4,P-GPS,Other,,14,5,TRUE,,Mavic 2 Enterprise,TRUE,FALSE,,Smart,RC,FALSE,TRUE,FALSE,,,TRUE,,FALSE,FALSE,FALSE,FALSE,FALSE,FALSE,FALSE,FALSE,FALSE,FALSE,0,Follow Yaw,0,0,-44.7,315.3,FALSE,FALSE,FALSE,FALSE,FALSE,TRUE,,TRUE,Card Too Slow,,,1024,1024,1684,1458,0,FALSE,FALSE,FALSE,FALSE,FALSE,0,FALSE,FALSE,FALSE,FALSE,82,,,,16.301,FALSE,4.091,4.084,4.07,4.056,0.035,FALSE,FALSE,,,,,0,0,0,15,10,6514.7,1670.44,,Idle,0,25,FALSE,10,TRUE,,Go Home,39.89197555,-105.2622296,0.4,6128.6,393.7,TRUE,1,1,FALSE,FALSE,FALSE,FALSE,0,TRUE,FALSE,FALSE,Course Lock,98.4,,16.4,Calm,8,Android, 4.8.0,dronefo...-Mavic 2 Enterprise,276DFAP001K3FQ,0K8HFA801103AV,0VECFAN0072UWQ,161AFAB6360172,182.3,6546.3,138.8,46.1,10.1,0,182,dronefo...-Mavic 2 Enterprise,276DFAP001K3FQ,0K8HFA801103AV,0VECFAN0072UWQ,161AFAB6360172,,Android, 4.8.0,,,,,,
32,11/20/2018,27:44.8,0m 3.3s,3.3,39.89197624,-105.2622286,2,2,2,6404,1.5,1.5,0,0.5,0.2,0.2,-3.8,0,-0.7,-1.9,-42.3,317.7,P-GPS,Other,,14,5,TRUE,,Mavic 2 Enterprise,TRUE,FALSE,,Smart,RC,FALSE,TRUE,FALSE,,,TRUE,,FALSE,FALSE,FALSE,FALSE,FALSE,FALSE,FALSE,FALSE,FALSE,FALSE,0,Follow Yaw,0,0,-43,317,FALSE,FALSE,FALSE,FALSE,FALSE,TRUE,,TRUE,Card Too Slow,,,1024,1024,1684,1595,0,FALSE,FALSE,FALSE,FALSE,FALSE,0,FALSE,FALSE,FALSE,FALSE,82,,,,16.301,FALSE,4.091,4.084,4.07,4.056,0.035,FALSE,FALSE,,,,,0,0,0,15,10,6514.7,1670.44,,Idle,0,25,FALSE,10,TRUE,,Go Home,39.89197555,-105.2622296,0.3,6128.6,393.7,TRUE,1,1,FALSE,FALSE,FALSE,FALSE,0,TRUE,FALSE,FALSE,Course Lock,98.4,,16.4,Calm,8,Android, 4.8.0,dronefo...-Mavic 2 Enterprise,276DFAP001K3FQ,0K8HFA801103AV,0VECFAN0072UWQ,161AFAB6360172,182.3,6546.3,138.8,46.1,10.1,0,182,dronefo...-Mavic 2 Enterprise,276DFAP001K3FQ,0K8HFA801103AV,0VECFAN0072UWQ,161AFAB6360172,,Android, 4.8.0,,,,,,
33,11/20/2018,27:44.9,0m 3.4s,3.4,39.89197616,-105.2622281,2.6,2.6,3,6405,0,1.5,0,0.5,0,0.2,-4.7,0,-0.6,-2,-39.9,320.1,P-GPS,Other,,14,5,TRUE,,Mavic 2 Enterprise,TRUE,FALSE,,Smart,RC,FALSE,TRUE,FALSE,,,TRUE,,FALSE,FALSE,FALSE,FALSE,FALSE,FALSE,FALSE,FALSE,FALSE,FALSE,0,Follow Yaw,0,0,-39.6,320.4,FALSE,FALSE,FALSE,FALSE,FALSE,TRUE,,TRUE,Card Too Slow,,,1024,1024,1684,1684,0,FALSE,FALSE,FALSE,FALSE,FALSE,0,FALSE,FALSE,FALSE,FALSE,82,,,,16.301,FALSE,4.091,4.084,4.07,4.056,0.035,FALSE,FALSE,,,,,0,0,0,15,10,6514.7,1670.44,,Idle,0,25,FALSE,10,TRUE,,Go Home,39.89197555,-105.2622296,0.4,6128.6,393.7,TRUE,1,1,FALSE,FALSE,FALSE,FALSE,0,TRUE,FALSE,FALSE,Course Lock,98.4,,16.4,Calm,8,Android, 4.8.0,dronefo...-Mavic 2 Enterprise,276DFAP001K3FQ,0K8HFA801103AV,0VECFAN0072UWQ,161AFAB6360172,182.3,6546.3,138.8,46.1,10.1,0,182,dronefo...-Mavic 2 Enterprise,276DFAP001K3FQ,0K8HFA801103AV,0VECFAN0072UWQ,161AFAB6360172,,Android, 4.8.0,,,,,,
34,11/20/2018,27:44.9,0m 3.5s,3.5,39.89197617,-105.262228,3.3,3.3,3.6,6405,0,1.5,0,0.5,0,0.2,-5.6,0,0,-2,-35.5,324.5,P-GPS,Other,,14,5,TRUE,,Mavic 2 Enterprise,TRUE,FALSE,,Smart,RC,FALSE,TRUE,FALSE,,,TRUE,,FALSE,FALSE,FALSE,FALSE,FALSE,FALSE,FALSE,FALSE,FALSE,FALSE,0,Follow Yaw,0,0,-34,326,FALSE,FALSE,FALSE,FALSE,FALSE,TRUE,,TRUE,Card Too Slow,,,1024,1024,1684,1684,0,FALSE,FALSE,FALSE,FALSE,FALSE,0,FALSE,FALSE,FALSE,FALSE,82,,,,16.301,FALSE,4.091,4.084,4.07,4.056,0.035,FALSE,FALSE,,,,,0,0,0,15,10,6514.7,1670.44,,Idle,0,25,FALSE,10,TRUE,,Go Home,39.89197555,-105.2622296,0.4,6128.6,393.7,TRUE,1,1,FALSE,FALSE,FALSE,FALSE,0,TRUE,FALSE,FALSE,Course Lock,98.4,,16.4,Calm,8,Android, 4.8.0,dronefo...-Mavic 2 Enterprise,276DFAP001K3FQ,0K8HFA801103AV,0VECFAN0072UWQ,161AFAB6360172,182.3,6546.3,138.8,46.1,10.1,0,182,dronefo...-Mavic 2 Enterprise,276DFAP001K3FQ,0K8HFA801103AV,0VECFAN0072UWQ,161AFAB6360172,,Android, 4.8.0,,,,,,
35,11/20/2018,27:45.0,0m 3.6s,3.6,39.89197613,-105.262228,4.3,4.3,4.6,6406,0,1.5,0,0.5,0,0.2,-6.5,0,-0.1,-1.7,-29.8,330.2,P-GPS,Other,,14,5,TRUE,,Mavic 2 Enterprise,TRUE,FALSE,,Smart,RC,FALSE,TRUE,FALSE,,,TRUE,,FALSE,FALSE,FALSE,FALSE,FALSE,FALSE,FALSE,FALSE,FALSE,FALSE,0,Follow Yaw,0,0,-28,332,FALSE,FALSE,FALSE,FALSE,FALSE,TRUE,,TRUE,Card Too Slow,,,1024,1024,1684,1684,0,FALSE,FALSE,FALSE,FALSE,FALSE,0,FALSE,FALSE,FALSE,FALSE,82,,,,16.301,FALSE,4.091,4.084,4.07,4.056,0.035,FALSE,FALSE,,,,,0,0,0,15,10,6514.7,1670.44,,Idle,0,25,FALSE,10,TRUE,,Go Home,39.89197555,-105.2622296,0.4,6128.6,393.7,TRUE,1,1,FALSE,FALSE,FALSE,FALSE,0,TRUE,FALSE,FALSE,Course Lock,98.4,,16.4,Calm,8,Android, 4.8.0,dronefo...-Mavic 2 Enterprise,276DFAP001K3FQ,0K8HFA801103AV,0VECFAN0072UWQ,161AFAB6360172,182.3,6546.3,138.8,46.1,10.1,0,182,dronefo...-Mavic 2 Enterprise,276DFAP001K3FQ,0K8HFA801103AV,0VECFAN0072UWQ,161AFAB6360172,,Android, 4.8.0,,,,,,
36,11/20/2018,27:45.2,0m 3.7s,3.7,39.89197611,-105.2622279,5.2,5.2,5.6,6407,0,1.5,0,0.5,0,0.2,-7.4,0,-0.5,-1.4,-24,336,P-GPS,Other,,14,5,TRUE,,Mavic 2 Enterprise,TRUE,FALSE,,Smart,RC,FALSE,TRUE,FALSE,,,TRUE,,FALSE,FALSE,FALSE,FALSE,FALSE,FALSE,FALSE,FALSE,FALSE,FALSE,0,Follow Yaw,0,0,-22,338,FALSE,FALSE,FALSE,FALSE,FALSE,TRUE,,TRUE,Card Too Slow,,,1024,1024,1684,1680,0,FALSE,FALSE,FALSE,FALSE,FALSE,0,FALSE,FALSE,FALSE,FALSE,82,,,,16.301,FALSE,4.091,4.084,4.07,4.056,0.035,FALSE,FALSE,,,,,0,0,0,15,10,6514.7,1670.44,,Idle,0,25,FALSE,10,TRUE,,Go Home,39.89197555,-105.2622296,0.4,6128.6,393.7,TRUE,1,1,FALSE,FALSE,FALSE,FALSE,0,TRUE,FALSE,FALSE,Course Lock,98.4,,16.4,Calm,8,Android, 4.8.0,dronefo...-Mavic 2 Enterprise,276DFAP001K3FQ,0K8HFA801103AV,0VECFAN0072UWQ,161AFAB6360172,182.3,6546.3,138.8,46.1,10.1,0,182,dronefo...-Mavic 2 Enterprise,276DFAP001K3FQ,0K8HFA801103AV,0VECFAN0072UWQ,161AFAB6360172,,Android, 4.8.0,,,,,,
37,11/20/2018,27:45.3,0m 3.8s,3.8,39.89197632,-105.2622279,6.2,6.2,6.9,6408,0,1.5,0,0.5,0,0.2,-8.1,0,-0.6,-1.4,-18.1,341.9,P-GPS,Other,,14,5,TRUE,,Mavic 2 Enterprise,TRUE,FALSE,,Smart,RC,FALSE,TRUE,FALSE,,,TRUE,,FALSE,FALSE,FALSE,FALSE,FALSE,FALSE,FALSE,FALSE,FALSE,FALSE,0,Follow Yaw,0,0,-16.1,343.9,FALSE,FALSE,FALSE,FALSE,FALSE,TRUE,,TRUE,Card Too Slow,,,1024,1024,1684,1648,0,FALSE,FALSE,FALSE,FALSE,FALSE,0,FALSE,FALSE,FALSE,FALSE,82,,,,16.299,FALSE,4.091,4.084,4.07,4.056,0.035,FALSE,FALSE,,,,,0,0,0,15,10,7677.5,1968.6,,Idle,0,25,FALSE,10,TRUE,,Go Home,39.89197555,-105.2622296,0.4,6128.6,393.7,TRUE,1,1,FALSE,FALSE,FALSE,FALSE,0,TRUE,FALSE,FALSE,Course Lock,98.4,,16.4,Calm,8,Android, 4.8.0,dronefo...-Mavic 2 Enterprise,276DFAP001K3FQ,0K8HFA801103AV,0VECFAN0072UWQ,161AFAB6360172,182.3,6546.3,138.8,46.1,10.1,0,182,dronefo...-Mavic 2 Enterprise,276DFAP001K3FQ,0K8HFA801103AV,0VECFAN0072UWQ,161AFAB6360172,,Android, 4.8.0,,,,,,
38,11/20/2018,27:45.4,0m 3.9s,3.9,39.89197635,-105.2622278,7.5,7.5,7.9,6409,0,1.5,0,0.5,0,0.2,-8.7,0,-0.2,-1.6,-12.2,347.8,P-GPS,Other,,14,5,TRUE,,Mavic 2 Enterprise,TRUE,FALSE,,Smart,RC,FALSE,TRUE,FALSE,,,TRUE,,FALSE,FALSE,FALSE,FALSE,FALSE,FALSE,FALSE,FALSE,FALSE,FALSE,0,Follow Yaw,0,0,-10.5,349.5,FALSE,FALSE,FALSE,FALSE,FALSE,TRUE,,TRUE,Card Too Slow,,,1024,1024,1684,1599,0,FALSE,FALSE,FALSE,FALSE,FALSE,0,FALSE,FALSE,FALSE,FALSE,82,,,,16.299,FALSE,4.091,4.084,4.07,4.056,0.035,FALSE,FALSE,,,,,0,0,0,15,10,7677.5,1968.6,,Idle,0,25,FALSE,10,TRUE,,Go Home,39.89197555,-105.2622296,0.5,6128.6,393.7,TRUE,1,1,FALSE,FALSE,FALSE,FALSE,0,TRUE,FALSE,FALSE,Course Lock,98.4,,16.4,Calm,8,Android, 4.8.0,dronefo...-Mavic 2 Enterprise,276DFAP001K3FQ,0K8HFA801103AV,0VECFAN0072UWQ,161AFAB6360172,182.3,6546.3,138.8,46.1,10.1,0,182,dronefo...-Mavic 2 Enterprise,276DFAP001K3FQ,0K8HFA801103AV,0VECFAN0072UWQ,161AFAB6360172,,Android, 4.8.0,,,,,,
39,11/20/2018,27:45.4,0m 4.0s,4,39.8919765,-105.2622283,8.9,8.9,9.5,6411,0,1.5,0,0.5,0,0.2,-9,0,0.7,-1.8,-6.9,353.1,P-GPS,Other,,14,5,TRUE,,Mavic 2 Enterprise,TRUE,FALSE,,Smart,RC,FALSE,TRUE,FALSE,,,TRUE,,FALSE,FALSE,FALSE,FALSE,FALSE,FALSE,FALSE,FALSE,FALSE,FALSE,0,Follow Yaw,0,0,-5.5,354.5,FALSE,FALSE,FALSE,FALSE,FALSE,TRUE,,TRUE,Card Too Slow,,,1024,1024,1684,1537,0,FALSE,FALSE,FALSE,FALSE,FALSE,0,FALSE,FALSE,FALSE,FALSE,82,,,,16.299,FALSE,4.091,4.084,4.07,4.056,0.035,FALSE,FALSE,,,,,0,0,0,15,10,7677.5,1968.6,,Idle,0,25,FALSE,10,TRUE,,Go Home,39.89197555,-105.2622296,0.4,6128.6,393.7,TRUE,1,1,FALSE,FALSE,FALSE,FALSE,0,TRUE,FALSE,FALSE,Course Lock,98.4,,16.4,Calm,8,Android, 4.8.0,dronefo...-Mavic 2 Enterprise,276DFAP001K3FQ,0K8HFA801103AV,0VECFAN0072UWQ,161AFAB6360172,182.3,6546.3,138.8,46.1,10.1,0,182,dronefo...-Mavic 2 Enterprise,276DFAP001K3FQ,0K8HFA801103AV,0VECFAN0072UWQ,161AFAB6360172,,Android, 4.8.0,,,,,,
40,11/20/2018,27:45.5,0m 4.1s,4.1,39.89197657,-105.2622283,10.2,10.2,10.8,6412,0,1.5,0,0.5,0,0.2,-9.2,0,1.4,-1.7,-2.6,357.4,P-GPS,Other,,14,5,TRUE,,Mavic 2 Enterprise,TRUE,FALSE,,Smart,RC,FALSE,TRUE,FALSE,,,TRUE,,FALSE,FALSE,FALSE,FALSE,FALSE,FALSE,FALSE,FALSE,FALSE,FALSE,0,Follow Yaw,0,0,-1.8,358.2,FALSE,FALSE,FALSE,FALSE,FALSE,TRUE,,TRUE,Card Too Slow,,,1024,1024,1684,1526,0,FALSE,FALSE,FALSE,FALSE,FALSE,0,FALSE,FALSE,FALSE,FALSE,82,,,,16.299,FALSE,4.091,4.084,4.07,4.056,0.035,FALSE,FALSE,,,,,0,0,0,15,10,7677.5,1968.6,,Idle,0,25,FALSE,10,TRUE,,Go Home,39.89197555,-105.2622296,0.4,6128.6,393.7,TRUE,1,1,FALSE,FALSE,FALSE,FALSE,0,TRUE,FALSE,FALSE,Course Lock,98.4,,16.4,Calm,8,Android, 4.8.0,dronefo...-Mavic 2 Enterprise,276DFAP001K3FQ,0K8HFA801103AV,0VECFAN0072UWQ,161AFAB6360172,182.3,6546.3,138.8,46.1,10.1,0,182,dronefo...-Mavic 2 Enterprise,276DFAP001K3FQ,0K8HFA801103AV,0VECFAN0072UWQ,161AFAB6360172,,Android, 4.8.0,,,,,,
41,11/20/2018,27:45.6,0m 4.2s,4.2,39.89197681,-105.2622284,11.5,11.5,12.1,6413,0,1.5,0,0.5,0,0.2,-9.2,0,2,-1.6,0.8,0.8,P-GPS,Other,,14,5,TRUE,,Mavic 2 Enterprise,TRUE,FALSE,,Smart,RC,FALSE,TRUE,FALSE,,,TRUE,,FALSE,FALSE,FALSE,FALSE,FALSE,FALSE,FALSE,FALSE,FALSE,FALSE,0,Follow Yaw,0,0,1.3,1.3,FALSE,FALSE,FALSE,FALSE,FALSE,TRUE,,TRUE,Card Too Slow,,,1024,1024,1684,1523,0,FALSE,FALSE,FALSE,FALSE,FALSE,0,FALSE,FALSE,FALSE,FALSE,82,,,,16.139,FALSE,4.047,4.041,4.032,4.019,0.035,FALSE,FALSE,,,,,0,0,0,15,10,7677.5,1968.6,,Idle,0,25,FALSE,10,TRUE,,Go Home,39.89197555,-105.2622296,0.5,6128.6,393.7,TRUE,1,1,FALSE,FALSE,FALSE,FALSE,0,TRUE,FALSE,FALSE,Course Lock,98.4,,16.4,Calm,8,Android, 4.8.0,dronefo...-Mavic 2 Enterprise,276DFAP001K3FQ,0K8HFA801103AV,0VECFAN0072UWQ,161AFAB6360172,182.3,6546.3,138.8,46.1,10.1,0,182,dronefo...-Mavic 2 Enterprise,276DFAP001K3FQ,0K8HFA801103AV,0VECFAN0072UWQ,161AFAB6360172,,Android, 4.8.0,,,,,,
42,11/20/2018,27:45.7,0m 4.3s,4.3,39.89197689,-105.2622284,13.1,13.1,13.8,6415,0,1.5,0,0.5,0,0.2,-9.2,0,2.2,-1.4,4.1,4.1,P-GPS,Other,,14,5,TRUE,,Mavic 2 Enterprise,TRUE,FALSE,,Smart,RC,FALSE,TRUE,FALSE,,,TRUE,,FALSE,FALSE,FALSE,FALSE,FALSE,FALSE,FALSE,FALSE,FALSE,FALSE,0,Follow Yaw,0,0,4.5,4.5,FALSE,FALSE,FALSE,FALSE,FALSE,TRUE,,TRUE,Card Too Slow,,,1024,1024,1684,1523,0,FALSE,FALSE,FALSE,FALSE,FALSE,0,FALSE,FALSE,FALSE,FALSE,82,,,,16.139,FALSE,4.047,4.041,4.032,4.019,0.035,FALSE,FALSE,,,,,0,0,0,15,10,7677.5,1968.6,,Idle,0,25,FALSE,10,TRUE,,Go Home,39.89197555,-105.2622296,0.5,6128.6,393.7,TRUE,1,1,FALSE,FALSE,FALSE,FALSE,0,TRUE,FALSE,FALSE,Course Lock,98.4,,16.4,Calm,8,Android, 4.8.0,dronefo...-Mavic 2 Enterprise,276DFAP001K3FQ,0K8HFA801103AV,0VECFAN0072UWQ,161AFAB6360172,182.3,6546.3,138.8,46.1,10.1,0,182,dronefo...-Mavic 2 Enterprise,276DFAP001K3FQ,0K8HFA801103AV,0VECFAN0072UWQ,161AFAB6360172,,Android, 4.8.0,,,,,,
43,11/20/2018,27:45.8,0m 4.4s,4.4,39.89197714,-105.2622286,14.4,14.4,15.1,6416,1.5,1.5,0,0.5,0,0.2,-9.2,0,2.2,-1.1,7.4,7.4,P-GPS,Other,,14,5,TRUE,,Mavic 2 Enterprise,TRUE,FALSE,,Smart,RC,FALSE,TRUE,FALSE,,,TRUE,,FALSE,FALSE,FALSE,FALSE,FALSE,FALSE,FALSE,FALSE,FALSE,FALSE,0,Follow Yaw,0,0,7.6,7.6,FALSE,FALSE,FALSE,FALSE,FALSE,TRUE,,TRUE,Card Too Slow,,,1024,1024,1684,1512,0,FALSE,FALSE,FALSE,FALSE,FALSE,0,FALSE,FALSE,FALSE,FALSE,82,,,,16.139,FALSE,4.047,4.041,4.032,4.019,0.035,FALSE,FALSE,,,,,0,0,0,15,10,7677.5,1968.6,,Idle,0,25,FALSE,10,TRUE,,Go Home,39.89197555,-105.2622296,0.6,6128.6,393.7,TRUE,1,1,FALSE,FALSE,FALSE,FALSE,0,TRUE,FALSE,FALSE,Course Lock,98.4,,16.4,Calm,8,Android, 4.8.0,dronefo...-Mavic 2 Enterprise,276DFAP001K3FQ,0K8HFA801103AV,0VECFAN0072UWQ,161AFAB6360172,182.3,6546.3,138.8,46.1,10.1,0,182,dronefo...-Mavic 2 Enterprise,276DFAP001K3FQ,0K8HFA801103AV,0VECFAN0072UWQ,161AFAB6360172,,Android, 4.8.0,,,,,,
44,11/20/2018,27:45.9,0m 4.5s,4.5,39.89197723,-105.2622286,15.7,15.7,16.4,6418,0,1.5,0,0.5,0,0.2,-9.2,0,2,-0.7,10.5,10.5,P-GPS,Other,,14,5,TRUE,,Mavic 2 Enterprise,TRUE,FALSE,,Smart,RC,FALSE,TRUE,FALSE,,,TRUE,,FALSE,FALSE,FALSE,FALSE,FALSE,FALSE,FALSE,FALSE,FALSE,FALSE,0,Follow Yaw,0,0,10.7,10.7,FALSE,FALSE,FALSE,FALSE,FALSE,TRUE,,TRUE,Card Too Slow,,,1024,1024,1684,1424,0,FALSE,FALSE,FALSE,FALSE,FALSE,0,FALSE,FALSE,FALSE,FALSE,82,,,,16.139,FALSE,4.047,4.041,4.032,4.019,0.035,FALSE,FALSE,,,,,0,0,0,15,10,7677.5,1968.6,,Idle,0,25,FALSE,10,TRUE,,Go Home,39.89197555,-105.2622296,0.6,6128.6,393.7,TRUE,1,1,FALSE,FALSE,FALSE,FALSE,0,TRUE,FALSE,FALSE,Course Lock,98.4,,16.4,Calm,8,Android, 4.8.0,dronefo...-Mavic 2 Enterprise,276DFAP001K3FQ,0K8HFA801103AV,0VECFAN0072UWQ,161AFAB6360172,182.3,6546.3,138.8,46.1,10.1,0,182,dronefo...-Mavic 2 Enterprise,276DFAP001K3FQ,0K8HFA801103AV,0VECFAN0072UWQ,161AFAB6360172,,Android, 4.8.0,,,,,,
45,11/20/2018,27:46.0,0m 4.6s,4.6,39.89197714,-105.2622287,17.1,17.1,17.7,6419,1.5,1.5,0,0.5,0,0.2,-9.2,0,1.8,-0.6,13.2,13.2,P-GPS,Other,,14,5,TRUE,,Mavic 2 Enterprise,TRUE,FALSE,,Smart,RC,FALSE,TRUE,FALSE,,,TRUE,,FALSE,FALSE,FALSE,FALSE,FALSE,FALSE,FALSE,FALSE,FALSE,FALSE,0,Follow Yaw,0,0,13,13,FALSE,FALSE,FALSE,FALSE,FALSE,TRUE,,TRUE,Card Too Slow,,,1024,1024,1684,1395,0,FALSE,FALSE,FALSE,FALSE,FALSE,0,FALSE,FALSE,FALSE,FALSE,82,,,,16.139,FALSE,4.047,4.041,4.032,4.019,0.035,FALSE,FALSE,,,,,0,0,0,15,10,7677.5,1968.6,,Idle,0,25,FALSE,10,TRUE,,Go Home,39.89197555,-105.2622296,0.6,6128.6,393.7,TRUE,1,1,FALSE,FALSE,FALSE,FALSE,0,TRUE,FALSE,FALSE,Course Lock,98.4,,16.4,Calm,8,Android, 4.8.0,dronefo...-Mavic 2 Enterprise,276DFAP001K3FQ,0K8HFA801103AV,0VECFAN0072UWQ,161AFAB6360172,182.3,6546.3,138.8,46.1,10.1,0,182,dronefo...-Mavic 2 Enterprise,276DFAP001K3FQ,0K8HFA801103AV,0VECFAN0072UWQ,161AFAB6360172,,Android, 4.8.0,,,,,,
46,11/20/2018,27:46.1,0m 4.7s,4.7,39.8919772,-105.2622288,18.4,18.4,19,6420,0,1.5,0,0.5,0,0.2,-9,0,1.8,-0.8,15.3,15.3,P-GPS,Other,,14,5,TRUE,,Mavic 2 Enterprise,TRUE,FALSE,,Smart,RC,FALSE,TRUE,FALSE,,,TRUE,,FALSE,FALSE,FALSE,FALSE,FALSE,FALSE,FALSE,FALSE,FALSE,FALSE,0,Follow Yaw,0,0,14.7,14.7,FALSE,FALSE,FALSE,FALSE,FALSE,TRUE,,TRUE,Card Too Slow,,,1024,1024,1684,1374,0,FALSE,FALSE,FALSE,FALSE,FALSE,0,FALSE,FALSE,FALSE,FALSE,82,,,,16.139,FALSE,4.047,4.041,4.032,4.019,0.035,FALSE,FALSE,,,,,0,0,0,15,10,7677.5,1968.6,,Idle,0,25,FALSE,10,TRUE,,Go Home,39.89197555,-105.2622296,0.6,6128.6,393.7,TRUE,1,1,FALSE,FALSE,FALSE,FALSE,0,TRUE,FALSE,FALSE,Course Lock,98.4,,16.4,Calm,8,Android, 4.8.0,dronefo...-Mavic 2 Enterprise,276DFAP001K3FQ,0K8HFA801103AV,0VECFAN0072UWQ,161AFAB6360172,182.3,6546.3,138.8,46.1,10.1,0,182,dronefo...-Mavic 2 Enterprise,276DFAP001K3FQ,0K8HFA801103AV,0VECFAN0072UWQ,161AFAB6360172,,Android, 4.8.0,,,,"To take off in non-P mode, toggle Flight Mode Switch to another mode and then toggle it back.",,
47,11/20/2018,27:46.2,0m 4.8s,4.8,39.8919772,-105.2622286,20,20,20.3,6422,0,1.5,0,0.5,0,0.2,-9,0,1.7,-0.6,16.9,16.9,P-GPS,Other,,14,5,TRUE,,Mavic 2 Enterprise,TRUE,FALSE,,Smart,RC,FALSE,TRUE,FALSE,,,TRUE,,FALSE,FALSE,FALSE,FALSE,FALSE,FALSE,FALSE,FALSE,FALSE,FALSE,0,Follow Yaw,0,0,16,16,FALSE,FALSE,FALSE,FALSE,FALSE,TRUE,,TRUE,Card Too Slow,,,1024,1024,1684,1416,0,FALSE,FALSE,FALSE,FALSE,FALSE,0,FALSE,FALSE,FALSE,FALSE,82,,,,16.097,FALSE,4.047,4.041,4.032,4.019,0.035,FALSE,FALSE,,,,,0,0,2,15,10,10049.9,2576.91,,Idle,0,25,FALSE,10,TRUE,,Go Home,39.89197555,-105.2622296,0.6,6128.6,393.7,TRUE,1,1,FALSE,FALSE,FALSE,FALSE,0,TRUE,FALSE,FALSE,Course Lock,98.4,,16.4,Calm,8,Android, 4.8.0,dronefo...-Mavic 2 Enterprise,276DFAP001K3FQ,0K8HFA801103AV,0VECFAN0072UWQ,161AFAB6360172,182.3,6546.3,138.8,46.1,10.1,0,182,dronefo...-Mavic 2 Enterprise,276DFAP001K3FQ,0K8HFA801103AV,0VECFAN0072UWQ,161AFAB6360172,,Android, 4.8.0,,,,,,
48,11/20/2018,27:46.3,0m 4.9s,4.9,39.89197724,-105.2622287,21.3,21.3,21.7,6423,0,1.5,0,0.5,0,0.2,-9,0,1.7,-0.4,18.5,18.5,P-GPS,Other,,14,5,TRUE,,Mavic 2 Enterprise,TRUE,FALSE,,Smart,RC,FALSE,TRUE,FALSE,,,TRUE,,FALSE,FALSE,FALSE,FALSE,FALSE,FALSE,FALSE,FALSE,FALSE,FALSE,0,Follow Yaw,0,0,17.6,17.6,FALSE,FALSE,FALSE,FALSE,FALSE,TRUE,,TRUE,Card Too Slow,,,1024,1024,1684,1418,1,FALSE,FALSE,FALSE,FALSE,FALSE,0,FALSE,FALSE,FALSE,FALSE,82,,,,16.097,FALSE,4.047,4.041,4.032,4.019,0.035,FALSE,FALSE,,,,,0,0,2,15,10,10049.9,2576.91,,Idle,0,25,FALSE,10,TRUE,,Go Home,39.89197555,-105.2622296,0.7,6128.6,393.7,TRUE,1,1,FALSE,FALSE,FALSE,FALSE,0,TRUE,FALSE,FALSE,Course Lock,98.4,,16.4,Calm,8,Android, 4.8.0,dronefo...-Mavic 2 Enterprise,276DFAP001K3FQ,0K8HFA801103AV,0VECFAN0072UWQ,161AFAB6360172,182.3,6546.3,138.8,46.1,10.1,0,182,dronefo...-Mavic 2 Enterprise,276DFAP001K3FQ,0K8HFA801103AV,0VECFAN0072UWQ,161AFAB6360172,,Android, 4.8.0,,,,,,
49,11/20/2018,27:46.4,0m 5.0s,5,39.89197729,-105.2622287,22.6,22.6,23,6425,0,1.5,0,0.5,0,0.2,-9,0,1.7,-0.2,20.1,20.1,P-GPS,Other,,14,5,TRUE,,Mavic 2 Enterprise,TRUE,FALSE,,Smart,RC,FALSE,TRUE,FALSE,,,TRUE,,FALSE,FALSE,FALSE,FALSE,FALSE,FALSE,FALSE,FALSE,FALSE,FALSE,0,Follow Yaw,0,0,19.4,19.4,FALSE,FALSE,FALSE,FALSE,FALSE,TRUE,,TRUE,Card Too Slow,,,1024,1024,1684,1418,1,FALSE,FALSE,FALSE,FALSE,FALSE,0,FALSE,FALSE,FALSE,FALSE,82,,,,16.097,FALSE,4.047,4.041,4.032,4.019,0.035,FALSE,FALSE,,,,,0,0,2,15,10,10049.9,2576.91,,Idle,0,25,FALSE,10,TRUE,,Go Home,39.89197555,-105.2622296,0.7,6128.6,393.7,TRUE,1,1,FALSE,FALSE,FALSE,FALSE,0,TRUE,FALSE,FALSE,Course Lock,98.4,,16.4,Calm,8,Android, 4.8.0,dronefo...-Mavic 2 Enterprise,276DFAP001K3FQ,0K8HFA801103AV,0VECFAN0072UWQ,161AFAB6360172,182.3,6546.3,138.8,46.1,10.1,0,182,dronefo...-Mavic 2 Enterprise,276DFAP001K3FQ,0K8HFA801103AV,0VECFAN0072UWQ,161AFAB6360172,,Android, 4.8.0,,,,,Switched to P (Positioning)-mode.,
50,11/20/2018,27:46.5,0m 5.1s,5.1,39.89197734,-105.2622287,24,24,24,6426,1.1,1.5,0,0.5,0,0.2,-9,0,1.8,-0.2,21.9,21.9,P-GPS,Other,,14,5,TRUE,,Mavic 2 Enterprise,TRUE,FALSE,,Smart,RC,FALSE,TRUE,FALSE,,,TRUE,,FALSE,FALSE,FALSE,FALSE,FALSE,FALSE,FALSE,FALSE,FALSE,FALSE,0,Follow Yaw,0,0,21.1,21.1,FALSE,FALSE,FALSE,FALSE,FALSE,TRUE,,TRUE,Card Too Slow,,,1024,1024,1684,1414,1,FALSE,FALSE,FALSE,FALSE,FALSE,0,FALSE,FALSE,FALSE,FALSE,82,,,,16.097,FALSE,4.047,4.041,4.032,4.019,0.035,FALSE,FALSE,,,,,0,0,2,15,10,10049.9,2576.91,,Idle,0,25,FALSE,10,TRUE,,Go Home,39.89197555,-105.2622296,0.7,6128.6,393.7,TRUE,1,1,FALSE,FALSE,FALSE,FALSE,0,TRUE,FALSE,FALSE,Course Lock,98.4,,16.4,Calm,8,Android, 4.8.0,dronefo...-Mavic 2 Enterprise,276DFAP001K3FQ,0K8HFA801103AV,0VECFAN0072UWQ,161AFAB6360172,182.3,6546.3,138.8,46.1,10.1,0,182,dronefo...-Mavic 2 Enterprise,276DFAP001K3FQ,0K8HFA801103AV,0VECFAN0072UWQ,161AFAB6360172,,Android, 4.8.0,,,,,,
51,11/20/2018,27:46.6,0m 5.2s,5.2,39.89197726,-105.2622285,25.3,25.3,25.3,6427,0,1.5,0,0.5,0,0.2,-9,0,1.9,0,23.7,23.7,P-GPS,Other,,14,5,TRUE,,Mavic 2 Enterprise,TRUE,FALSE,,Smart,RC,FALSE,TRUE,FALSE,,,TRUE,,FALSE,FALSE,FALSE,FALSE,FALSE,FALSE,FALSE,FALSE,FALSE,FALSE,0,Follow Yaw,0,0,22.9,22.9,FALSE,FALSE,FALSE,FALSE,FALSE,TRUE,,TRUE,Card Too Slow,,,1024,1024,1684,1416,1,FALSE,FALSE,FALSE,FALSE,FALSE,0,FALSE,FALSE,FALSE,FALSE,82,,,,16.197,FALSE,4.063,4.057,4.046,4.031,0.035,FALSE,FALSE,,,,,0,0,2,15,10,10049.9,2576.91,,Idle,0,25,FALSE,10,TRUE,,Go Home,39.89197555,-105.2622296,0.6,6128.6,393.7,TRUE,1,1,FALSE,FALSE,FALSE,FALSE,0,TRUE,FALSE,FALSE,Course Lock,98.4,,16.4,Calm,8,Android, 4.8.0,dronefo...-Mavic 2 Enterprise,276DFAP001K3FQ,0K8HFA801103AV,0VECFAN0072UWQ,161AFAB6360172,182.3,6546.3,138.8,46.1,10.1,0,182,dronefo...-Mavic 2 Enterprise,276DFAP001K3FQ,0K8HFA801103AV,0VECFAN0072UWQ,161AFAB6360172,,Android, 4.8.0,,,,,,
52,11/20/2018,27:46.7,0m 5.3s,5.3,39.89197729,-105.2622285,26.6,26.6,26.6,6429,1.1,1.5,0,0.5,0,0.2,-9,0,1.9,-0.2,25.4,25.4,P-GPS,Other,,14,5,TRUE,,Mavic 2 Enterprise,TRUE,FALSE,,Smart,RC,FALSE,TRUE,FALSE,,,TRUE,,FALSE,FALSE,FALSE,FALSE,FALSE,FALSE,FALSE,FALSE,FALSE,FALSE,0,Follow Yaw,0,0,24.6,24.6,FALSE,FALSE,FALSE,FALSE,FALSE,TRUE,,TRUE,Card Too Slow,,,1024,1024,1684,1418,1,FALSE,FALSE,FALSE,FALSE,FALSE,0,FALSE,FALSE,FALSE,FALSE,82,,,,16.197,FALSE,4.063,4.057,4.046,4.031,0.035,FALSE,FALSE,,,,,0,0,2,15,10,10049.9,2576.91,,Idle,0,25,FALSE,10,TRUE,,Go Home,39.89197555,-105.2622296,0.7,6128.6,393.7,TRUE,1,1,FALSE,FALSE,FALSE,FALSE,0,TRUE,FALSE,FALSE,Course Lock,98.4,,16.4,Calm,8,Android, 4.8.0,dronefo...-Mavic 2 Enterprise,276DFAP001K3FQ,0K8HFA801103AV,0VECFAN0072UWQ,161AFAB6360172,182.3,6546.3,138.8,46.1,10.1,0,182,dronefo...-Mavic 2 Enterprise,276DFAP001K3FQ,0K8HFA801103AV,0VECFAN0072UWQ,161AFAB6360172,,Android, 4.8.0,,,,,,
53,11/20/2018,27:46.8,0m 5.4s,5.4,39.89197722,-105.2622284,27.9,27.9,27.9,6430,0,1.5,0,0.5,0,0.2,-9,0,1.8,0,27.2,27.2,P-GPS,Other,,14,5,TRUE,,Mavic 2 Enterprise,TRUE,FALSE,,Smart,RC,FALSE,TRUE,FALSE,,,TRUE,,FALSE,FALSE,FALSE,FALSE,FALSE,FALSE,FALSE,FALSE,FALSE,FALSE,0,Follow Yaw,0,0,26.4,26.4,FALSE,FALSE,FALSE,FALSE,FALSE,TRUE,,TRUE,Card Too Slow,,,1024,1024,1684,1440,0,FALSE,FALSE,FALSE,FALSE,FALSE,0,FALSE,FALSE,FALSE,FALSE,82,,,,16.197,FALSE,4.063,4.057,4.046,4.031,0.035,FALSE,FALSE,,,,,0,0,2,15,10,10049.9,2576.91,,Idle,0,25,FALSE,10,TRUE,,Go Home,39.89197555,-105.2622296,0.6,6128.6,393.7,TRUE,1,1,FALSE,FALSE,FALSE,FALSE,0,TRUE,FALSE,FALSE,Course Lock,98.4,,16.4,Calm,8,Android, 4.8.0,dronefo...-Mavic 2 Enterprise,276DFAP001K3FQ,0K8HFA801103AV,0VECFAN0072UWQ,161AFAB6360172,182.3,6546.3,138.8,46.1,10.1,0,182,dronefo...-Mavic 2 Enterprise,276DFAP001K3FQ,0K8HFA801103AV,0VECFAN0072UWQ,161AFAB6360172,,Android, 4.8.0,,,,,Switched to P (Positioning)-mode.,
54,11/20/2018,27:46.9,0m 5.5s,5.5,39.89197723,-105.2622284,29.2,29.2,29.2,6431,0,1.5,0,0.5,0,0.2,-9,0,1.8,-0.2,29.6,29.6,Sport,Other,,14,5,TRUE,,Mavic 2 Enterprise,TRUE,FALSE,,Smart,RC,FALSE,TRUE,FALSE,,,TRUE,,FALSE,FALSE,FALSE,FALSE,FALSE,FALSE,FALSE,FALSE,FALSE,FALSE,0,Follow Yaw,0,0,29.6,29.6,FALSE,FALSE,FALSE,FALSE,FALSE,TRUE,,TRUE,Card Too Slow,,,1024,1024,1684,1451,0,FALSE,FALSE,FALSE,FALSE,FALSE,0,FALSE,FALSE,FALSE,FALSE,82,,,,16.197,FALSE,4.063,4.057,4.046,4.031,0.035,FALSE,FALSE,,,,,0,0,2,15,10,10049.9,2576.91,,Idle,0,25,FALSE,10,TRUE,,Go Home,39.89197555,-105.2622296,0.6,6128.6,393.7,TRUE,1,1,FALSE,FALSE,FALSE,FALSE,0,TRUE,FALSE,FALSE,Course Lock,98.4,,16.4,Calm,8,Android, 4.8.0,dronefo...-Mavic 2 Enterprise,276DFAP001K3FQ,0K8HFA801103AV,0VECFAN0072UWQ,161AFAB6360172,182.3,6546.3,138.8,46.1,10.1,0,182,dronefo...-Mavic 2 Enterprise,276DFAP001K3FQ,0K8HFA801103AV,0VECFAN0072UWQ,161AFAB6360172,,Android, 4.8.0,,,,,Switched to S (Sport)-mode.,
55,11/20/2018,27:47.0,0m 5.6s,5.6,39.89197705,-105.2622283,30.5,30.5,30.5,6432,0,1.5,0,0.5,0,0.2,-9,0,1.8,-0.1,35.7,35.7,Sport,Other,,14,5,TRUE,,Mavic 2 Enterprise,TRUE,FALSE,,Smart,RC,FALSE,TRUE,FALSE,,,TRUE,,FALSE,FALSE,FALSE,FALSE,FALSE,FALSE,FALSE,FALSE,FALSE,FALSE,0,Follow Yaw,0,0,37.4,37.4,FALSE,FALSE,FALSE,FALSE,FALSE,TRUE,,TRUE,Card Too Slow,,,1024,1024,1684,1468,0,FALSE,FALSE,FALSE,FALSE,FALSE,0,FALSE,FALSE,FALSE,FALSE,82,,,,16.197,FALSE,4.063,4.057,4.046,4.031,0.035,FALSE,FALSE,,,,,0,0,2,15,10,10049.9,2576.91,,Idle,0,25,FALSE,10,TRUE,,Go Home,39.89197555,-105.2622296,0.6,6128.6,393.7,TRUE,1,1,FALSE,FALSE,FALSE,FALSE,0,TRUE,FALSE,FALSE,Course Lock,98.4,,16.4,Calm,8,Android, 4.8.0,dronefo...-Mavic 2 Enterprise,276DFAP001K3FQ,0K8HFA801103AV,0VECFAN0072UWQ,161AFAB6360172,182.3,6546.3,138.8,46.1,10.1,0,182,dronefo...-Mavic 2 Enterprise,276DFAP001K3FQ,0K8HFA801103AV,0VECFAN0072UWQ,161AFAB6360172,,Android, 4.8.0,,,,,,
56,11/20/2018,27:47.1,0m 5.7s,5.7,39.89197704,-105.2622282,31.8,31.8,30.8,6434,0,1.5,0,0.5,0,0.2,-8.7,0,1.7,0.4,43.2,43.2,Sport,Other,,14,5,TRUE,,Mavic 2 Enterprise,FALSE,FALSE,,Smart,RC,FALSE,TRUE,FALSE,,,TRUE,,FALSE,FALSE,FALSE,FALSE,FALSE,FALSE,FALSE,FALSE,FALSE,FALSE,0,Follow Yaw,0,0,45.8,45.8,FALSE,FALSE,FALSE,FALSE,FALSE,TRUE,,TRUE,Card Too Slow,,,1024,1024,1684,1466,0,FALSE,FALSE,FALSE,FALSE,FALSE,0,FALSE,FALSE,FALSE,FALSE,82,,,,16.197,FALSE,4.063,4.057,4.046,4.031,0.035,FALSE,FALSE,,,,,0,0,2,15,10,10049.9,2576.91,,Idle,0,25,FALSE,10,TRUE,,Go Home,39.89197555,-105.2622296,0.6,6128.6,393.7,TRUE,1,1,FALSE,FALSE,FALSE,FALSE,0,TRUE,FALSE,FALSE,Course Lock,98.4,,16.4,Calm,8,Android, 4.8.0,dronefo...-Mavic 2 Enterprise,276DFAP001K3FQ,0K8HFA801103AV,0VECFAN0072UWQ,161AFAB6360172,182.3,6546.3,138.8,46.1,10.1,0,182,dronefo...-Mavic 2 Enterprise,276DFAP001K3FQ,0K8HFA801103AV,0VECFAN0072UWQ,161AFAB6360172,,Android, 4.8.0,,,,,,
57,11/20/2018,27:47.3,0m 5.8s,5.8,39.8919772,-105.2622283,33.1,33.1,30.8,6435,0,1.5,0,0.5,0,0.2,-9,0,1.6,0.7,51.3,51.3,Sport,Other,,14,5,TRUE,,Mavic 2 Enterprise,FALSE,FALSE,,Smart,RC,FALSE,TRUE,FALSE,,,TRUE,,FALSE,FALSE,FALSE,FALSE,FALSE,FALSE,FALSE,FALSE,FALSE,FALSE,0,Follow Yaw,0,0,63,63,FALSE,FALSE,FALSE,FALSE,FALSE,TRUE,,TRUE,Card Too Slow,,,646,1024,1684,1468,0,FALSE,FALSE,FALSE,FALSE,FALSE,0,FALSE,FALSE,FALSE,FALSE,82,,,,16.184,FALSE,4.063,4.057,4.046,4.031,0.035,FALSE,FALSE,,,,,0,0,3,15,10,14120.8,3620.71,,Idle,0,25,FALSE,10,TRUE,,Go Home,39.89197555,-105.2622296,0.6,6128.6,393.7,TRUE,1,1,FALSE,FALSE,FALSE,FALSE,0,TRUE,FALSE,FALSE,Course Lock,98.4,,16.4,Calm,8,Android, 4.8.0,dronefo...-Mavic 2 Enterprise,276DFAP001K3FQ,0K8HFA801103AV,0VECFAN0072UWQ,161AFAB6360172,182.3,6546.3,138.8,46.1,10.1,0,182,dronefo...-Mavic 2 Enterprise,276DFAP001K3FQ,0K8HFA801103AV,0VECFAN0072UWQ,161AFAB6360172,,Android, 4.8.0,,,,,,
58,11/20/2018,27:47.4,0m 6.0s,6,39.89197709,-105.262228,35.8,35.8,30.8,6438,0,1.5,0,0.5,0,0.2,-9,0,1.7,-2,68.1,68.1,Sport,Other,,14,5,TRUE,,Mavic 2 Enterprise,FALSE,FALSE,,Smart,RC,FALSE,TRUE,FALSE,,,TRUE,,FALSE,FALSE,FALSE,FALSE,FALSE,FALSE,FALSE,FALSE,FALSE,FALSE,0,Follow Yaw,0,0,71.6,71.6,FALSE,FALSE,FALSE,FALSE,FALSE,TRUE,,TRUE,Card Too Slow,,,999,1449,1684,1318,0,FALSE,FALSE,FALSE,FALSE,FALSE,0,FALSE,FALSE,FALSE,FALSE,82,,,,16.184,FALSE,4.063,4.057,4.046,4.031,0.035,FALSE,FALSE,,,,,0,0,3,15,10,14120.8,3620.71,,Idle,0,25,FALSE,10,TRUE,,Go Home,39.89197555,-105.2622296,0.6,6128.6,393.7,TRUE,1,1,FALSE,FALSE,FALSE,FALSE,0,TRUE,FALSE,FALSE,Course Lock,98.4,,16.4,Calm,8,Android, 4.8.0,dronefo...-Mavic 2 Enterprise,276DFAP001K3FQ,0K8HFA801103AV,0VECFAN0072UWQ,161AFAB6360172,182.3,6546.3,138.8,46.1,10.1,0,182,dronefo...-Mavic 2 Enterprise,276DFAP001K3FQ,0K8HFA801103AV,0VECFAN0072UWQ,161AFAB6360172,,Android, 4.8.0,,,,,,
59,11/20/2018,27:47.5,0m 6.1s,6.1,39.8919771,-105.262228,37.1,37.1,30.8,6439,0,1.5,0,0.5,0,0.2,-9,0,1.1,-8.4,75.8,75.8,Sport,Other,,14,5,TRUE,,Mavic 2 Enterprise,FALSE,FALSE,,Smart,RC,FALSE,TRUE,FALSE,,,TRUE,,FALSE,FALSE,FALSE,FALSE,FALSE,FALSE,FALSE,FALSE,FALSE,FALSE,0,Follow Yaw,0,0,77.8,77.8,FALSE,FALSE,FALSE,FALSE,FALSE,TRUE,,TRUE,Card Too Slow,,,1024,1684,1684,1024,0,FALSE,FALSE,FALSE,FALSE,FALSE,0,FALSE,FALSE,FALSE,FALSE,82,,,,16.184,FALSE,4.063,4.057,4.046,4.031,0.035,FALSE,FALSE,,,,,0,0,3,15,10,14120.8,3620.71,,Idle,0,25,FALSE,10,TRUE,,Go Home,39.89197555,-105.2622296,0.7,6128.6,393.7,TRUE,1,1,FALSE,FALSE,FALSE,FALSE,0,TRUE,FALSE,FALSE,Course Lock,98.4,,16.4,Calm,8,Android, 4.8.0,dronefo...-Mavic 2 Enterprise,276DFAP001K3FQ,0K8HFA801103AV,0VECFAN0072UWQ,161AFAB6360172,182.3,6546.3,138.8,46.1,10.1,0,182,dronefo...-Mavic 2 Enterprise,276DFAP001K3FQ,0K8HFA801103AV,0VECFAN0072UWQ,161AFAB6360172,,Android, 4.8.0,,,,,,
60,11/20/2018,27:47.6,0m 6.2s,6.2,39.89197708,-105.2622279,38.4,38.4,30.8,6440,0,1.5,0.5,0.5,0,0.2,-9,0,-15.6,-7,80.3,80.3,Sport,Other,,14,5,TRUE,,Mavic 2 Enterprise,FALSE,FALSE,,Smart,RC,FALSE,TRUE,FALSE,,,TRUE,,FALSE,FALSE,FALSE,FALSE,FALSE,FALSE,FALSE,FALSE,FALSE,FALSE,0,Follow Yaw,0,0,78.7,78.7,FALSE,FALSE,FALSE,FALSE,FALSE,TRUE,,TRUE,Card Too Slow,,,1024,1684,1684,725,0,FALSE,FALSE,FALSE,FALSE,FALSE,0,FALSE,FALSE,FALSE,FALSE,82,,,,16.175,FALSE,4.057,4.051,4.04,4.027,0.035,FALSE,FALSE,,,,,0,0,3,15,10,14120.8,3620.71,,Idle,0,25,FALSE,10,TRUE,,Go Home,39.89197555,-105.2622296,0.6,6128.6,393.7,TRUE,1,1,FALSE,FALSE,FALSE,FALSE,0,TRUE,FALSE,FALSE,Course Lock,98.4,,16.4,Calm,8,Android, 4.8.0,dronefo...-Mavic 2 Enterprise,276DFAP001K3FQ,0K8HFA801103AV,0VECFAN0072UWQ,161AFAB6360172,182.3,6546.3,138.8,46.1,10.1,0,182,dronefo...-Mavic 2 Enterprise,276DFAP001K3FQ,0K8HFA801103AV,0VECFAN0072UWQ,161AFAB6360172,,Android, 4.8.0,,,,,,
