#,CUSTOM.date [local], CUSTOM.updateTime [local], OSD.flyTime, OSD.flyTime [s], OSD.latitude, OSD.longitude, OSD.height [ft], OSD.heightMax [ft], OSD.vpsHeight [ft], OSD.altitude [ft], OSD.hSpeed [MPH], OSD.hSpeedMax [MPH], OSD.xSpeed [MPH], OSD.xSpeedMax [MPH], OSD.ySpeed [MPH], OSD.ySpeedMax [MPH], OSD.zSpeed [MPH], OSD.zSpeedMax [MPH], OSD.pitch, OSD.roll, OSD.yaw, OSD.yaw [360], OSD.flycState, OSD.flycCommand, OSD.flightAction, OSD.gpsNum, OSD.gpsLevel, OSD.isGPSUsed, OSD.nonGPSCause, OSD.droneType, OSD.isSwaveWork, OSD.waveError, OSD.goHomeStatus, OSD.batteryType, OSD.ctrlDevice, OSD.isOnGround, OSD.isMotorOn, OSD.isMotorBlocked, OSD.motorStartFailedCause, OSD.motorFailReason, OSD.isImuPreheated, OSD.imuInitFailReason, OSD.isAcceletorOverRange, OSD.isBarometerDeadInAir, OSD.isCompassError, OSD.isGoHomeHeightModified, OSD.canIOCWork, OSD.isNotEnoughForce, OSD.isOutOfLimit, OSD.isPropellerCatapult, OSD.isVibrating, OSD.isVisionUsed, OSD.voltageWarning, GIMBAL.mode, GIMBAL.pitch, GIMBAL.roll, GIMBAL.yaw, GIMBAL.yaw [360], GIMBAL.isPitchAtLimit, GIMBAL.isRollAtLimit, GIMBAL.isYawAtLimit, GIMBAL.isStuck, CAMERA.isPhoto, CAMERA.isVideo, CAMERA.filename, CAMERA.sdCardIsInserted, CAMERA.sdCardState, RC.downlinkSignal, RC.uplinkSignal, RC.aileron, RC.elevator, RC.throttle, RC.rudder, RC.mode, RC.goHomeDepressed, RC.recordDepressed, RC.shutterDepressed, RC.playbackDepressed, RC.wheelDepressed, RC.wheelOffset, RC.custom1Depressed, RC.custom2Depressed, RC.custom3Depressed, RC.custom4Depressed, BATTERY.chargeLevel, BATTERY.currentPV [V], BATTERY.currentCapacity [mAh], BATTERY.fullCapacity [mAh], BATTERY.voltage [V], BATTERY.isCellVoltageEstimated, BATTERY.cellVoltage1 [V], BATTERY.cellVoltage2 [V], BATTERY.cellVoltage3 [V], BATTERY.cellVoltage4 [V], BATTERY.maxCellVoltageDeviation, BATTERY.isCellVoltageDeviationHigh, BATTERY.isVoltageLow, BATTERY.current [A], BATTERY.temperature [F], BATTERY.minTemperature [F], BATTERY.maxTemperature [F], BATTERY.usefulTime [s], BATTERY.goHomeTime [s], BATTERY.landTime [s], BATTERY.goHomeBattery, BATTERY.landBattery, BATTERY.safeFlyRadius, BATTERY.volumeConsume, BATTERY.status, BATTERY.goHomeStatus, BATTERY.goHomeCountdown, BATTERY.lowWarning, BATTERY.lowWarningGoHome, BATTERY.seriousLowWarning, BATTERY.seriousLowWarningLanding, BATTERY.timesCharged, MC.failSafeAction, HOME.latitude, HOME.longitude, HOME.distance [ft], HOME.height [ft], HOME.heightLimit [ft], HOME.isHomeRecord, HOME.goHomeMode, HOME.aircraftHeadDirection, HOME.isDynamicHomePointEnabled, HOME.isReachedLimitDistance, HOME.isReachedLimitHeight, HOME.isCompassCeleing, HOME.compassCeleStatus, HOME.isMultipleFlightModeEnabled, HOME.isBeginnerMode, HOME.isIOCEnabled, HOME.iocMode, HOME.goHomeHeight [ft], HOME.courseLockAngle, HOME.forceLandingHeight [ft], HOME.wind, HOME.dataRecorderFileIndex, RECOVER.appType, RECOVER.appVersion, RECOVER.aircraftName, RECOVER.aircraftSerial, RECOVER.cameraSerial, RECOVER.rcSerial, RECOVER.batterySerial, DETAILS.totalTime [s], DETAILS.totalDistance [ft], DETAILS.maxHeight [ft], DETAILS.maxHorizontalSpeed [MPH], DETAILS.maxVerticalSpeed [MPH], DETAILS.photoNum, DETAILS.videoTime [s], DETAILS.aircraftName, DETAILS.aircraftSerial, DETAILS.cameraSerial, DETAILS.rcSerial, DETAILS.batterySerial, DETAILS.appName, DETAILS.appType, DETAILS.appVersion, APPGPS.latitude, APPGPS.longitude, APPGPS.accuracy, APP.message, APP.tip, APP.warning
1,11/20/2018,19:39.0,2m 21.6s,141.6,39.89196349,-105.2622225,0,0,0.3,6402,0,0,0,0,0,0,0,0,4.4,4.7,-40.7,319.3,Starting Motors,Other,Takeoff (RC Assisted),14,5,TRUE,,Mavic 2 Enterprise,TRUE,FALSE,,Smart,RC,TRUE,TRUE,FALSE,,,TRUE,,FALSE,FALSE,FALSE,FALSE,FALSE,FALSE,FALSE,FALSE,FALSE,FALSE,0,Follow Yaw,0,0,-35.2,324.8,FALSE,FALSE,FALSE,FALSE,FALSE,TRUE,,TRUE,Card Too Slow,,,1024,1024,1024,1024,0,FALSE,FALSE,FALSE,FALSE,FALSE,0,FALSE,FALSE,FALSE,FALSE,44,,,,15.295,TRUE,3.824,3.824,3.824,3.824,,FALSE,FALSE,,,,,0,2,0,15,10,5909.5,1515.25,,Idle,0,25,FALSE,10,TRUE,,Go Home,39.89195112,-105.2622207,4.5,6144.8,393.7,TRUE,1,1,FALSE,FALSE,FALSE,FALSE,0,TRUE,FALSE,FALSE,Course Lock,98.4,,16.4,Calm,6,Android, 4.8.0,dronefo...-Mavic 2 Enterprise,276DFAP001K3FQ,0K8HFA801103AV,0VECFAN0072UWQ,161AFA863601YF,174.1,5888.6,115.2,45.8,9.4,0,174,dronefo...-Mavic 2 Enterprise,276DFAP001K3FQ,0K8HFA801103AV,0VECFAN0072UWQ,161AFA863601YF,,Android, 4.8.0,,,,Data Recorder File Index is 6.,,
2,11/20/2018,19:39.1,2m 21.7s,141.7,39.89196349,-105.2622225,0,0,0.3,6402,0,0,0,0,0,0,0,0,4.4,4.7,-40.7,319.3,Starting Motors,Other,Takeoff (RC Assisted),14,5,TRUE,,Mavic 2 Enterprise,TRUE,FALSE,,Smart,RC,TRUE,TRUE,FALSE,,,TRUE,,FALSE,FALSE,FALSE,FALSE,FALSE,FALSE,FALSE,FALSE,FALSE,FALSE,0,Follow Yaw,0,0,-35.2,324.8,FALSE,FALSE,FALSE,FALSE,FALSE,TRUE,,TRUE,Card Too Slow,,,1082,662,404,875,0,FALSE,FALSE,FALSE,FALSE,FALSE,0,FALSE,FALSE,FALSE,FALSE,44,,,,15.295,TRUE,3.824,3.824,3.824,3.824,,FALSE,FALSE,,,,,0,2,0,15,10,5909.5,1515.25,,Idle,0,25,FALSE,10,TRUE,,Go Home,39.89195112,-105.2622207,4.5,6144.8,393.7,TRUE,1,1,FALSE,FALSE,FALSE,FALSE,0,TRUE,FALSE,FALSE,Course Lock,98.4,,16.4,Calm,6,Android, 4.8.0,dronefo...-Mavic 2 Enterprise,276DFAP001K3FQ,0K8HFA801103AV,0VECFAN0072UWQ,161AFA863601YF,174.1,5888.6,115.2,45.8,9.4,0,174,dronefo...-Mavic 2 Enterprise,276DFAP001K3FQ,0K8HFA801103AV,0VECFAN0072UWQ,161AFA863601YF,,Android, 4.8.0,,,,,,
3,11/20/2018,19:39.2,2m 21.8s,141.8,39.8919635,-105.2622225,0,0,0.3,6402,0,0,0,0,0,0,0,0,4.4,4.7,-40.7,319.3,Starting Motors,Other,Takeoff (RC Assisted),14,5,TRUE,,Mavic 2 Enterprise,TRUE,FALSE,,Smart,RC,TRUE,TRUE,FALSE,,,TRUE,,FALSE,FALSE,FALSE,FALSE,FALSE,FALSE,FALSE,FALSE,FALSE,FALSE,0,Follow Yaw,0,0,-35.2,324.8,FALSE,FALSE,FALSE,FALSE,FALSE,TRUE,,TRUE,Card Too Slow,,,1024,1024,1024,1024,0,FALSE,FALSE,FALSE,FALSE,FALSE,0,FALSE,FALSE,FALSE,FALSE,44,,,,15.295,TRUE,3.824,3.824,3.824,3.824,,FALSE,FALSE,,,,,0,2,0,15,10,5909.5,1515.25,,Idle,0,25,FALSE,10,TRUE,,Go Home,39.89195112,-105.2622207,4.5,6144.8,393.7,TRUE,1,1,FALSE,FALSE,FALSE,FALSE,0,TRUE,FALSE,FALSE,Course Lock,98.4,,16.4,Calm,6,Android, 4.8.0,dronefo...-Mavic 2 Enterprise,276DFAP001K3FQ,0K8HFA801103AV,0VECFAN0072UWQ,161AFA863601YF,174.1,5888.6,115.2,45.8,9.4,0,174,dronefo...-Mavic 2 Enterprise,276DFAP001K3FQ,0K8HFA801103AV,0VECFAN0072UWQ,161AFA863601YF,,Android, 4.8.0,,,,,,
4,11/20/2018,19:39.3,2m 21.9s,141.9,39.8919635,-105.2622225,0,0,0.3,6402,0,0,0,0,0,0,0,0,4.4,4.7,-40.7,319.3,Starting Motors,Other,Takeoff (RC Assisted),14,5,TRUE,,Mavic 2 Enterprise,TRUE,FALSE,,Smart,RC,TRUE,TRUE,FALSE,,,TRUE,,FALSE,FALSE,FALSE,FALSE,FALSE,FALSE,FALSE,FALSE,FALSE,FALSE,0,Follow Yaw,0,0,-35.2,324.8,FALSE,FALSE,FALSE,FALSE,FALSE,TRUE,,TRUE,Card Too Slow,,,1024,1024,1024,1024,0,FALSE,FALSE,FALSE,FALSE,FALSE,0,FALSE,FALSE,FALSE,FALSE,44,,,,15.295,TRUE,3.824,3.824,3.824,3.824,,FALSE,FALSE,,,,,0,2,0,15,10,5909.5,1515.25,,Idle,0,25,FALSE,10,TRUE,,Go Home,39.89195112,-105.2622207,4.5,6144.8,393.7,TRUE,1,1,FALSE,FALSE,FALSE,FALSE,0,TRUE,FALSE,FALSE,Course Lock,98.4,,16.4,Calm,6,Android, 4.8.0,dronefo...-Mavic 2 Enterprise,276DFAP001K3FQ,0K8HFA801103AV,0VECFAN0072UWQ,161AFA863601YF,174.1,5888.6,115.2,45.8,9.4,0,174,dronefo...-Mavic 2 Enterprise,276DFAP001K3FQ,0K8HFA801103AV,0VECFAN0072UWQ,161AFA863601YF,,Android, 4.8.0,,,,,,
5,11/20/2018,19:39.4,2m 22.0s,142,39.89196351,-105.2622225,0,0,0.3,6402,0,0,0,0,0,0,0,0,4.4,4.7,-40.7,319.3,Starting Motors,Other,Takeoff (RC Assisted),14,5,TRUE,,Mavic 2 Enterprise,TRUE,FALSE,,Smart,RC,TRUE,TRUE,FALSE,,,TRUE,,FALSE,FALSE,FALSE,FALSE,FALSE,FALSE,FALSE,FALSE,FALSE,FALSE,0,Follow Yaw,0,0,-35.2,324.8,FALSE,FALSE,FALSE,FALSE,FALSE,TRUE,,TRUE,Card Too Slow,,,1024,1024,1024,1024,0,FALSE,FALSE,FALSE,FALSE,FALSE,0,FALSE,FALSE,FALSE,FALSE,44,,,,15.295,TRUE,3.824,3.824,3.824,3.824,,FALSE,FALSE,,,,,0,2,0,15,10,5909.5,1515.25,,Idle,0,25,FALSE,10,TRUE,,Go Home,39.89195112,-105.2622207,4.5,6144.8,393.7,TRUE,1,1,FALSE,FALSE,FALSE,FALSE,0,TRUE,FALSE,FALSE,Course Lock,98.4,,16.4,Calm,6,Android, 4.8.0,dronefo...-Mavic 2 Enterprise,276DFAP001K3FQ,0K8HFA801103AV,0VECFAN0072UWQ,161AFA863601YF,174.1,5888.6,115.2,45.8,9.4,0,174,dronefo...-Mavic 2 Enterprise,276DFAP001K3FQ,0K8HFA801103AV,0VECFAN0072UWQ,161AFA863601YF,,Android, 4.8.0,,,,,,
6,11/20/2018,19:39.5,2m 22.1s,142.1,39.89196351,-105.2622225,0,0,0.3,6402,0,0,0,0,0,0,0,0,4.4,4.7,-40.7,319.3,Starting Motors,Other,Takeoff (RC Assisted),14,5,TRUE,,Mavic 2 Enterprise,TRUE,FALSE,,Smart,RC,TRUE,TRUE,FALSE,,,TRUE,,FALSE,FALSE,FALSE,FALSE,FALSE,FALSE,FALSE,FALSE,FALSE,FALSE,0,Follow Yaw,0,0,-35.2,324.8,FALSE,FALSE,FALSE,FALSE,FALSE,TRUE,,TRUE,Card Too Slow,,,1024,1024,1024,1024,0,FALSE,FALSE,FALSE,FALSE,FALSE,0,FALSE,FALSE,FALSE,FALSE,44,,,,15.295,TRUE,3.824,3.824,3.824,3.824,,FALSE,FALSE,,,,,0,2,0,15,10,5909.5,1515.25,,Idle,0,25,FALSE,10,TRUE,,Go Home,39.89195112,-105.2622207,4.5,6144.8,393.7,TRUE,1,1,FALSE,FALSE,FALSE,FALSE,0,TRUE,FALSE,FALSE,Course Lock,98.4,,16.4,Calm,6,Android, 4.8.0,dronefo...-Mavic 2 Enterprise,276DFAP001K3FQ,0K8HFA801103AV,0VECFAN0072UWQ,161AFA863601YF,174.1,5888.6,115.2,45.8,9.4,0,174,dronefo...-Mavic 2 Enterprise,276DFAP001K3FQ,0K8HFA801103AV,0VECFAN0072UWQ,161AFA863601YF,,Android, 4.8.0,,,,,,
7,11/20/2018,19:39.6,2m 22.2s,142.2,39.89196337,-105.2622225,0,0,0.3,6402,0,0,0,0,0,0,0,0,4.4,4.7,-40.7,319.3,Starting Motors,Other,Takeoff (RC Assisted),14,5,TRUE,,Mavic 2 Enterprise,TRUE,FALSE,,Smart,RC,TRUE,TRUE,FALSE,,,TRUE,,FALSE,FALSE,FALSE,FALSE,FALSE,FALSE,FALSE,FALSE,FALSE,FALSE,0,Follow Yaw,0,0,-35.2,324.8,FALSE,FALSE,FALSE,FALSE,FALSE,TRUE,,TRUE,Card Too Slow,,,1024,1024,1024,1024,0,FALSE,FALSE,FALSE,FALSE,FALSE,0,FALSE,FALSE,FALSE,FALSE,44,,,,15.306,FALSE,3.827,3.828,3.828,3.823,0.005,FALSE,FALSE,,,,,0,2,0,15,10,5909.5,1515.25,,Idle,0,25,FALSE,10,TRUE,,Go Home,39.89195112,-105.2622207,4.5,6144.8,393.7,TRUE,1,1,FALSE,FALSE,FALSE,FALSE,0,TRUE,FALSE,FALSE,Course Lock,98.4,,16.4,Calm,6,Android, 4.8.0,dronefo...-Mavic 2 Enterprise,276DFAP001K3FQ,0K8HFA801103AV,0VECFAN0072UWQ,161AFA863601YF,174.1,5888.6,115.2,45.8,9.4,0,174,dronefo...-Mavic 2 Enterprise,276DFAP001K3FQ,0K8HFA801103AV,0VECFAN0072UWQ,161AFA863601YF,,Android, 4.8.0,,,,,,
8,11/20/2018,19:39.7,2m 22.3s,142.3,39.89196336,-105.2622225,0,0,0.3,6402,0,0,0,0,0,0,0,0,4.4,4.7,-40.7,319.3,Starting Motors,Other,Takeoff (RC Assisted),14,5,TRUE,,Mavic 2 Enterprise,TRUE,FALSE,,Smart,RC,TRUE,TRUE,FALSE,,,TRUE,,FALSE,FALSE,FALSE,FALSE,FALSE,FALSE,FALSE,FALSE,FALSE,FALSE,0,Follow Yaw,0,0,-35.2,324.8,FALSE,FALSE,FALSE,FALSE,FALSE,TRUE,,TRUE,Card Too Slow,,,1024,1024,1024,1024,0,FALSE,FALSE,FALSE,FALSE,FALSE,0,FALSE,FALSE,FALSE,FALSE,44,,,,15.306,FALSE,3.827,3.828,3.828,3.823,0.005,FALSE,FALSE,,,,,0,2,0,15,10,5909.5,1515.25,,Idle,0,25,FALSE,10,TRUE,,Go Home,39.89195112,-105.2622207,4.5,6144.8,393.7,TRUE,1,1,FALSE,FALSE,FALSE,FALSE,0,TRUE,FALSE,FALSE,Course Lock,98.4,,16.4,Calm,6,Android, 4.8.0,dronefo...-Mavic 2 Enterprise,276DFAP001K3FQ,0K8HFA801103AV,0VECFAN0072UWQ,161AFA863601YF,174.1,5888.6,115.2,45.8,9.4,0,174,dronefo...-Mavic 2 Enterprise,276DFAP001K3FQ,0K8HFA801103AV,0VECFAN0072UWQ,161AFA863601YF,,Android, 4.8.0,,,,,,
9,11/20/2018,19:39.8,2m 22.4s,142.4,39.89196338,-105.2622225,0,0,0.3,6402,0,0,0,0,0,0,0,0,4.4,4.7,-40.7,319.3,Starting Motors,Other,Takeoff (RC Assisted),14,5,TRUE,,Mavic 2 Enterprise,TRUE,FALSE,,Smart,RC,TRUE,TRUE,FALSE,,,TRUE,,FALSE,FALSE,FALSE,FALSE,FALSE,FALSE,FALSE,FALSE,FALSE,FALSE,0,Follow Yaw,0,0,-35.2,324.8,FALSE,FALSE,FALSE,FALSE,FALSE,TRUE,,TRUE,Card Too Slow,,,1024,1024,1024,1024,0,FALSE,FALSE,FALSE,FALSE,FALSE,0,FALSE,FALSE,FALSE,FALSE,44,,,,15.306,FALSE,3.827,3.828,3.828,3.823,0.005,FALSE,FALSE,,,,,0,2,0,15,10,5909.5,1515.25,,Idle,0,25,FALSE,10,TRUE,,Go Home,39.89195112,-105.2622207,4.5,6144.8,393.7,TRUE,1,1,FALSE,FALSE,FALSE,FALSE,0,TRUE,FALSE,FALSE,Course Lock,98.4,,16.4,Calm,6,Android, 4.8.0,dronefo...-Mavic 2 Enterprise,276DFAP001K3FQ,0K8HFA801103AV,0VECFAN0072UWQ,161AFA863601YF,174.1,5888.6,115.2,45.8,9.4,0,174,dronefo...-Mavic 2 Enterprise,276DFAP001K3FQ,0K8HFA801103AV,0VECFAN0072UWQ,161AFA863601YF,,Android, 4.8.0,,,,,,
10,11/20/2018,19:39.9,2m 22.5s,142.5,39.89196337,-105.2622225,0,0,0.3,6402,0,0,0,0,0,0,0,0,4.4,4.7,-40.7,319.3,Starting Motors,Other,Takeoff (RC Assisted),14,5,TRUE,,Mavic 2 Enterprise,TRUE,FALSE,,Smart,RC,TRUE,TRUE,FALSE,,,TRUE,,FALSE,FALSE,FALSE,FALSE,FALSE,FALSE,FALSE,FALSE,FALSE,FALSE,0,Follow Yaw,0,0,-35.2,324.8,FALSE,FALSE,FALSE,FALSE,FALSE,TRUE,,TRUE,Card Too Slow,,,1024,1024,1024,1024,0,FALSE,FALSE,FALSE,FALSE,FALSE,0,FALSE,FALSE,FALSE,FALSE,44,,,,15.306,FALSE,3.827,3.828,3.828,3.823,0.005,FALSE,FALSE,,,,,0,2,0,15,10,5909.5,1515.25,,Idle,0,25,FALSE,10,TRUE,,Go Home,39.89195112,-105.2622207,4.5,6144.8,393.7,TRUE,1,1,FALSE,FALSE,FALSE,FALSE,0,TRUE,FALSE,FALSE,Course Lock,98.4,,16.4,Calm,6,Android, 4.8.0,dronefo...-Mavic 2 Enterprise,276DFAP001K3FQ,0K8HFA801103AV,0VECFAN0072UWQ,161AFA863601YF,174.1,5888.6,115.2,45.8,9.4,0,174,dronefo...-Mavic 2 Enterprise,276DFAP001K3FQ,0K8HFA801103AV,0VECFAN0072UWQ,161AFA863601YF,,Android, 4.8.0,,,,,,
11,11/20/2018,19:40.0,2m 22.6s,142.6,39.89196339,-105.2622225,0,0,0.3,6402,0,0,0,0,0,0,0,0,4.5,4.7,-40.8,319.2,Manual Takeoff,Other,Takeoff (RC Assisted),14,5,TRUE,,Mavic 2 Enterprise,TRUE,FALSE,,Smart,RC,TRUE,TRUE,FALSE,,,TRUE,,FALSE,FALSE,FALSE,FALSE,FALSE,FALSE,FALSE,FALSE,FALSE,FALSE,0,Follow Yaw,0,0,-35.2,324.8,FALSE,FALSE,FALSE,FALSE,FALSE,TRUE,,TRUE,Card Too Slow,,,1024,1024,1024,1024,0,FALSE,FALSE,FALSE,FALSE,FALSE,0,FALSE,FALSE,FALSE,FALSE,44,,,,15.263,FALSE,3.827,3.828,3.828,3.823,0.005,FALSE,FALSE,,,,,0,2,0,15,10,6172.4,1582.68,,Idle,0,25,FALSE,10,TRUE,,Go Home,39.89195112,-105.2622207,4.5,6144.8,393.7,TRUE,1,1,FALSE,FALSE,FALSE,FALSE,0,TRUE,FALSE,FALSE,Course Lock,98.4,,16.4,Calm,6,Android, 4.8.0,dronefo...-Mavic 2 Enterprise,276DFAP001K3FQ,0K8HFA801103AV,0VECFAN0072UWQ,161AFA863601YF,174.1,5888.6,115.2,45.8,9.4,0,174,dronefo...-Mavic 2 Enterprise,276DFAP001K3FQ,0K8HFA801103AV,0VECFAN0072UWQ,161AFA863601YF,,Android, 4.8.0,,,,,,
12,11/20/2018,19:40.1,2m 22.7s,142.7,39.89196338,-105.2622225,0,0,0.3,6402,0,0,0,0,0,0,0,0,4.5,4.7,-40.8,319.2,Manual Takeoff,Other,Takeoff (RC Assisted),14,5,TRUE,,Mavic 2 Enterprise,TRUE,FALSE,,Smart,RC,TRUE,TRUE,FALSE,,,TRUE,,FALSE,FALSE,FALSE,FALSE,FALSE,FALSE,FALSE,FALSE,FALSE,FALSE,0,Follow Yaw,0,0,-35.2,324.8,FALSE,FALSE,FALSE,FALSE,FALSE,TRUE,,TRUE,Card Too Slow,,,1024,1024,1024,1024,0,FALSE,FALSE,FALSE,FALSE,FALSE,0,FALSE,FALSE,FALSE,FALSE,44,,,,15.263,FALSE,3.827,3.828,3.828,3.823,0.005,FALSE,FALSE,,,,,0,2,0,15,10,6172.4,1582.68,,Idle,0,25,FALSE,10,TRUE,,Go Home,39.89195112,-105.2622207,4.5,6144.8,393.7,TRUE,1,1,FALSE,FALSE,FALSE,FALSE,0,TRUE,FALSE,FALSE,Course Lock,98.4,,16.4,Calm,6,Android, 4.8.0,dronefo...-Mavic 2 Enterprise,276DFAP001K3FQ,0K8HFA801103AV,0VECFAN0072UWQ,161AFA863601YF,174.1,5888.6,115.2,45.8,9.4,0,174,dronefo...-Mavic 2 Enterprise,276DFAP001K3FQ,0K8HFA801103AV,0VECFAN0072UWQ,161AFA863601YF,,Android, 4.8.0,,,,,,
13,11/20/2018,19:40.2,2m 22.8s,142.8,39.8919634,-105.2622225,0,0,0.3,6402,0,0,0,0,0,0,0,0,4.5,4.7,-40.8,319.2,Manual Takeoff,Other,Takeoff (RC Assisted),14,5,TRUE,,Mavic 2 Enterprise,TRUE,FALSE,,Smart,RC,TRUE,TRUE,FALSE,,,TRUE,,FALSE,FALSE,FALSE,FALSE,FALSE,FALSE,FALSE,FALSE,FALSE,FALSE,0,Follow Yaw,0,0,-35.2,324.8,FALSE,FALSE,FALSE,FALSE,FALSE,TRUE,,TRUE,Card Too Slow,,,1024,1024,1126,1024,0,FALSE,FALSE,FALSE,FALSE,FALSE,0,FALSE,FALSE,FALSE,FALSE,44,,,,15.263,FALSE,3.827,3.828,3.828,3.823,0.005,FALSE,FALSE,,,,,0,2,0,15,10,6172.4,1582.68,,Idle,0,25,FALSE,10,TRUE,,Go Home,39.89195112,-105.2622207,4.5,6144.8,393.7,TRUE,1,1,FALSE,FALSE,FALSE,FALSE,0,TRUE,FALSE,FALSE,Course Lock,98.4,,16.4,Calm,6,Android, 4.8.0,dronefo...-Mavic 2 Enterprise,276DFAP001K3FQ,0K8HFA801103AV,0VECFAN0072UWQ,161AFA863601YF,174.1,5888.6,115.2,45.8,9.4,0,174,dronefo...-Mavic 2 Enterprise,276DFAP001K3FQ,0K8HFA801103AV,0VECFAN0072UWQ,161AFA863601YF,,Android, 4.8.0,,,,,,
14,11/20/2018,19:40.3,2m 22.9s,142.9,39.8919634,-105.2622225,0,0,0.3,6402,0,0,0,0,0,0,0,0,4.5,4.7,-40.7,319.3,Manual Takeoff,Other,Takeoff (RC Assisted),14,5,TRUE,,Mavic 2 Enterprise,TRUE,FALSE,,Smart,RC,TRUE,TRUE,FALSE,,,TRUE,,FALSE,FALSE,FALSE,FALSE,FALSE,FALSE,FALSE,FALSE,FALSE,FALSE,0,Follow Yaw,0,0,-35.2,324.8,FALSE,FALSE,FALSE,FALSE,FALSE,TRUE,,TRUE,Card Too Slow,,,1024,1024,1219,1080,0,FALSE,FALSE,FALSE,FALSE,FALSE,0,FALSE,FALSE,FALSE,FALSE,44,,,,15.263,FALSE,3.827,3.828,3.828,3.823,0.005,FALSE,FALSE,,,,,0,2,0,15,10,6172.4,1582.68,,Idle,0,25,FALSE,10,TRUE,,Go Home,39.89195112,-105.2622207,4.5,6144.8,393.7,TRUE,1,1,FALSE,FALSE,FALSE,FALSE,0,TRUE,FALSE,FALSE,Course Lock,98.4,,16.4,Calm,6,Android, 4.8.0,dronefo...-Mavic 2 Enterprise,276DFAP001K3FQ,0K8HFA801103AV,0VECFAN0072UWQ,161AFA863601YF,174.1,5888.6,115.2,45.8,9.4,0,174,dronefo...-Mavic 2 Enterprise,276DFAP001K3FQ,0K8HFA801103AV,0VECFAN0072UWQ,161AFA863601YF,,Android, 4.8.0,,,,,,
15,11/20/2018,19:40.4,2m 23.0s,143,39.89196341,-105.2622225,0,0,0.3,6402,0,0,0,0,0,0,0,0,4.5,4.7,-40.8,319.2,Manual Takeoff,Other,Takeoff (RC Assisted),14,5,TRUE,,Mavic 2 Enterprise,TRUE,FALSE,,Smart,RC,TRUE,TRUE,FALSE,,,TRUE,,FALSE,FALSE,FALSE,FALSE,FALSE,FALSE,FALSE,FALSE,FALSE,FALSE,0,Follow Yaw,0,0,-35.2,324.8,FALSE,FALSE,FALSE,FALSE,FALSE,TRUE,,TRUE,Card Too Slow,,,1024,1024,1684,1078,0,FALSE,FALSE,FALSE,FALSE,FALSE,0,FALSE,FALSE,FALSE,FALSE,44,,,,15.263,FALSE,3.827,3.828,3.828,3.823,0.005,FALSE,FALSE,,,,,0,2,0,15,10,6172.4,1582.68,,Idle,0,25,FALSE,10,TRUE,,Go Home,39.89195112,-105.2622207,4.5,6144.8,393.7,TRUE,1,1,FALSE,FALSE,FALSE,FALSE,0,TRUE,FALSE,FALSE,Course Lock,98.4,,16.4,Calm,6,Android, 4.8.0,dronefo...-Mavic 2 Enterprise,276DFAP001K3FQ,0K8HFA801103AV,0VECFAN0072UWQ,161AFA863601YF,174.1,5888.6,115.2,45.8,9.4,0,174,dronefo...-Mavic 2 Enterprise,276DFAP001K3FQ,0K8HFA801103AV,0VECFAN0072UWQ,161AFA863601YF,,Android, 4.8.0,,,,,,
16,11/20/2018,19:40.5,2m 23.1s,143.1,39.89196341,-105.2622225,0,0,0.3,6402,0,0,0,0,0,0,0,0,4.5,4.7,-40.7,319.3,Manual Takeoff,Other,Takeoff (RC Assisted),14,5,TRUE,,Mavic 2 Enterprise,TRUE,FALSE,,Smart,RC,TRUE,TRUE,FALSE,,,TRUE,,FALSE,FALSE,FALSE,FALSE,FALSE,FALSE,FALSE,FALSE,FALSE,FALSE,0,Follow Yaw,0,0,-35.2,324.8,FALSE,FALSE,FALSE,FALSE,FALSE,TRUE,,TRUE,Card Too Slow,,,1024,1024,1684,1077,0,FALSE,FALSE,FALSE,FALSE,FALSE,0,FALSE,FALSE,FALSE,FALSE,44,,,,15.263,FALSE,3.827,3.828,3.828,3.823,0.005,FALSE,FALSE,,,,,0,2,0,15,10,6172.4,1582.68,,Idle,0,25,FALSE,10,TRUE,,Go Home,39.89195112,-105.2622207,4.5,6144.8,393.7,TRUE,1,1,FALSE,FALSE,FALSE,FALSE,0,TRUE,FALSE,FALSE,Course Lock,98.4,,16.4,Calm,6,Android, 4.8.0,dronefo...-Mavic 2 Enterprise,276DFAP001K3FQ,0K8HFA801103AV,0VECFAN0072UWQ,161AFA863601YF,174.1,5888.6,115.2,45.8,9.4,0,174,dronefo...-Mavic 2 Enterprise,276DFAP001K3FQ,0K8HFA801103AV,0VECFAN0072UWQ,161AFA863601YF,,Android, 4.8.0,,,,,,
17,11/20/2018,19:40.6,2m 23.2s,143.2,39.89196342,-105.2622225,0,0,0.3,6402,0,0,0,0,0,0,0,0,4.5,4.7,-40.8,319.2,Manual Takeoff,Other,Takeoff (RC Assisted),14,5,TRUE,,Mavic 2 Enterprise,TRUE,FALSE,,Smart,RC,TRUE,TRUE,FALSE,,,TRUE,,FALSE,FALSE,FALSE,FALSE,FALSE,FALSE,FALSE,FALSE,FALSE,FALSE,0,Follow Yaw,0,0,-35.2,324.8,FALSE,FALSE,FALSE,FALSE,FALSE,TRUE,,TRUE,Card Too Slow,,,1024,1024,1684,1024,0,FALSE,FALSE,FALSE,FALSE,FALSE,0,FALSE,FALSE,FALSE,FALSE,44,,,,15.234,FALSE,3.811,3.811,3.81,3.802,0.009,FALSE,FALSE,,,,,0,2,0,15,10,6172.4,1582.68,,Idle,0,25,FALSE,10,TRUE,,Go Home,39.89195112,-105.2622207,4.5,6144.8,393.7,TRUE,1,1,FALSE,FALSE,FALSE,FALSE,0,TRUE,FALSE,FALSE,Course Lock,98.4,,16.4,Calm,6,Android, 4.8.0,dronefo...-Mavic 2 Enterprise,276DFAP001K3FQ,0K8HFA801103AV,0VECFAN0072UWQ,161AFA863601YF,174.1,5888.6,115.2,45.8,9.4,0,174,dronefo...-Mavic 2 Enterprise,276DFAP001K3FQ,0K8HFA801103AV,0VECFAN0072UWQ,161AFA863601YF,,Android, 4.8.0,,,,,,
18,11/20/2018,19:40.7,2m 23.3s,143.3,39.89196342,-105.2622225,0,0,0.3,6402,0,0,0,0,0,0,0,0,4.4,4.7,-40.8,319.2,Manual Takeoff,Other,Takeoff (RC Assisted),14,5,TRUE,,Mavic 2 Enterprise,TRUE,FALSE,,Smart,RC,TRUE,TRUE,FALSE,,,TRUE,,FALSE,FALSE,FALSE,FALSE,FALSE,FALSE,FALSE,FALSE,FALSE,FALSE,0,Follow Yaw,0,0,-35.2,324.8,FALSE,FALSE,FALSE,FALSE,FALSE,TRUE,,TRUE,Card Too Slow,,,1024,1024,1684,1024,0,FALSE,FALSE,FALSE,FALSE,FALSE,0,FALSE,FALSE,FALSE,FALSE,44,,,,15.234,FALSE,3.811,3.811,3.81,3.802,0.009,FALSE,FALSE,,,,,0,2,0,15,10,6172.4,1582.68,,Idle,0,25,FALSE,10,TRUE,,Go Home,39.89195112,-105.2622207,4.5,6144.8,393.7,TRUE,1,1,FALSE,FALSE,FALSE,FALSE,0,TRUE,FALSE,FALSE,Course Lock,98.4,,16.4,Calm,6,Android, 4.8.0,dronefo...-Mavic 2 Enterprise,276DFAP001K3FQ,0K8HFA801103AV,0VECFAN0072UWQ,161AFA863601YF,174.1,5888.6,115.2,45.8,9.4,0,174,dronefo...-Mavic 2 Enterprise,276DFAP001K3FQ,0K8HFA801103AV,0VECFAN0072UWQ,161AFA863601YF,,Android, 4.8.0,,,,,,Compass abnormalSolution: 1. Ensure there are no magnets or metal objects near the aircraft. The ground or walls may contain metal. Move away from sources of interference before attempting flight. 2. Calibrate Compass Before Takeoff.
19,11/20/2018,19:40.8,2m 23.4s,143.4,39.89196342,-105.2622225,0,0,0.3,6402,0,0,0,0,0,0,0,0,4.4,4.6,-40.8,319.2,Manual Takeoff,Other,Takeoff (RC Assisted),14,5,TRUE,,Mavic 2 Enterprise,TRUE,FALSE,,Smart,RC,TRUE,TRUE,FALSE,,,TRUE,,FALSE,FALSE,FALSE,FALSE,FALSE,FALSE,FALSE,FALSE,FALSE,FALSE,0,Follow Yaw,0,0,-35.2,324.8,FALSE,FALSE,FALSE,FALSE,FALSE,TRUE,,TRUE,Card Too Slow,,,1024,1024,1684,1024,0,FALSE,FALSE,FALSE,FALSE,FALSE,0,FALSE,FALSE,FALSE,FALSE,44,,,,15.234,FALSE,3.811,3.811,3.81,3.802,0.009,FALSE,FALSE,,,,,0,2,0,15,10,6172.4,1582.68,,Idle,0,25,FALSE,10,TRUE,,Go Home,39.89195112,-105.2622207,4.5,6144.8,393.7,TRUE,1,1,FALSE,FALSE,FALSE,FALSE,0,TRUE,FALSE,FALSE,Course Lock,98.4,,16.4,Calm,6,Android, 4.8.0,dronefo...-Mavic 2 Enterprise,276DFAP001K3FQ,0K8HFA801103AV,0VECFAN0072UWQ,161AFA863601YF,174.1,5888.6,115.2,45.8,9.4,0,174,dronefo...-Mavic 2 Enterprise,276DFAP001K3FQ,0K8HFA801103AV,0VECFAN0072UWQ,161AFA863601YF,,Android, 4.8.0,,,,,,
20,11/20/2018,19:40.9,2m 23.5s,143.5,39.89196343,-105.2622225,0,0,0.3,6402,0,0,0,0,0,0,0,0,4.2,4.6,-40.8,319.2,Manual Takeoff,Other,Takeoff (RC Assisted),14,5,TRUE,,Mavic 2 Enterprise,TRUE,FALSE,,Smart,RC,TRUE,TRUE,FALSE,,,TRUE,,FALSE,FALSE,FALSE,FALSE,FALSE,FALSE,FALSE,FALSE,FALSE,FALSE,0,Follow Yaw,0,0,-35.2,324.8,FALSE,FALSE,FALSE,FALSE,FALSE,TRUE,,TRUE,Card Too Slow,,,1024,1024,1684,1024,0,FALSE,FALSE,FALSE,FALSE,FALSE,0,FALSE,FALSE,FALSE,FALSE,44,,,,15.234,FALSE,3.811,3.811,3.81,3.802,0.009,FALSE,FALSE,,,,,0,2,0,15,10,6172.4,1582.68,,Idle,0,25,FALSE,10,TRUE,,Go Home,39.89195112,-105.2622207,4.5,6144.8,393.7,TRUE,1,1,FALSE,FALSE,FALSE,FALSE,0,TRUE,FALSE,FALSE,Course Lock,98.4,,16.4,Calm,6,Android, 4.8.0,dronefo...-Mavic 2 Enterprise,276DFAP001K3FQ,0K8HFA801103AV,0VECFAN0072UWQ,161AFA863601YF,174.1,5888.6,115.2,45.8,9.4,0,174,dronefo...-Mavic 2 Enterprise,276DFAP001K3FQ,0K8HFA801103AV,0VECFAN0072UWQ,161AFA863601YF,,Android, 4.8.0,,,,,,
21,11/20/2018,19:41.0,2m 23.6s,143.6,39.89196343,-105.2622225,0,0,0.3,6402,0,0,0,0,0,0,0,0,2.6,4.6,-41.2,318.8,Manual Takeoff,Other,Takeoff (RC Assisted),14,5,TRUE,,Mavic 2 Enterprise,TRUE,FALSE,,Smart,RC,TRUE,TRUE,FALSE,,,TRUE,,FALSE,FALSE,FALSE,FALSE,FALSE,FALSE,FALSE,FALSE,FALSE,FALSE,0,Follow Yaw,0,0,-35.2,324.8,FALSE,FALSE,FALSE,FALSE,FALSE,TRUE,,TRUE,Card Too Slow,,,1024,1024,1684,1024,0,FALSE,FALSE,FALSE,FALSE,FALSE,0,FALSE,FALSE,FALSE,FALSE,44,,,,15.237,FALSE,3.811,3.811,3.81,3.802,0.009,FALSE,FALSE,,,,,0,2,0,15,10,6861.1,1759.27,,Idle,0,25,FALSE,10,TRUE,,Go Home,39.89195112,-105.2622207,4.5,6144.8,393.7,TRUE,1,1,FALSE,FALSE,FALSE,FALSE,0,TRUE,FALSE,FALSE,Course Lock,98.4,,16.4,Calm,6,Android, 4.8.0,dronefo...-Mavic 2 Enterprise,276DFAP001K3FQ,0K8HFA801103AV,0VECFAN0072UWQ,161AFA863601YF,174.1,5888.6,115.2,45.8,9.4,0,174,dronefo...-Mavic 2 Enterprise,276DFAP001K3FQ,0K8HFA801103AV,0VECFAN0072UWQ,161AFA863601YF,,Android, 4.8.0,,,,,,
22,11/20/2018,19:41.1,2m 23.7s,143.7,39.89196347,-105.2622225,0,0,0.3,6402,0,0,0,0,0,0,-0.2,0,-1.7,4.5,-42,318,Manual Takeoff,Other,Takeoff (RC Assisted),14,5,TRUE,,Mavic 2 Enterprise,TRUE,FALSE,,Smart,RC,TRUE,TRUE,FALSE,,,TRUE,,FALSE,FALSE,FALSE,FALSE,FALSE,FALSE,FALSE,FALSE,FALSE,FALSE,0,Follow Yaw,0,0,-35.2,324.8,FALSE,FALSE,FALSE,FALSE,FALSE,TRUE,,TRUE,Card Too Slow,,,1024,1024,1684,1024,0,FALSE,FALSE,FALSE,FALSE,FALSE,0,FALSE,FALSE,FALSE,FALSE,44,,,,15.237,FALSE,3.811,3.811,3.81,3.802,0.009,FALSE,FALSE,,,,,0,2,0,15,10,6861.1,1759.27,,Idle,0,25,FALSE,10,TRUE,,Go Home,39.89195112,-105.2622207,4.5,6144.8,393.7,TRUE,1,1,FALSE,FALSE,FALSE,FALSE,0,TRUE,FALSE,FALSE,Course Lock,98.4,,16.4,Calm,6,Android, 4.8.0,dronefo...-Mavic 2 Enterprise,276DFAP001K3FQ,0K8HFA801103AV,0VECFAN0072UWQ,161AFA863601YF,174.1,5888.6,115.2,45.8,9.4,0,174,dronefo...-Mavic 2 Enterprise,276DFAP001K3FQ,0K8HFA801103AV,0VECFAN0072UWQ,161AFA863601YF,,Android, 4.8.0,,,,,,
23,11/20/2018,19:41.2,2m 23.8s,143.8,39.89196357,-105.2622224,0,0,0.3,6402,0,0,0.2,0.2,0,0,-0.2,0,-5,3.1,-42.4,317.6,Sport,Other,,14,5,TRUE,,Mavic 2 Enterprise,TRUE,FALSE,,Smart,RC,FALSE,TRUE,FALSE,,,TRUE,,FALSE,FALSE,FALSE,FALSE,FALSE,FALSE,FALSE,FALSE,FALSE,FALSE,0,Follow Yaw,0,0,-35.2,324.8,FALSE,FALSE,FALSE,FALSE,FALSE,TRUE,,TRUE,Card Too Slow,,,1024,1024,1684,1024,0,FALSE,FALSE,FALSE,FALSE,FALSE,0,FALSE,FALSE,FALSE,FALSE,44,,,,15.237,FALSE,3.811,3.811,3.81,3.802,0.009,FALSE,FALSE,,,,,0,2,0,15,10,6861.1,1759.27,,Idle,0,25,FALSE,10,TRUE,,Go Home,39.89195112,-105.2622207,4.6,6144.8,393.7,TRUE,1,1,FALSE,FALSE,FALSE,FALSE,0,TRUE,FALSE,FALSE,Course Lock,98.4,,16.4,Calm,6,Android, 4.8.0,dronefo...-Mavic 2 Enterprise,276DFAP001K3FQ,0K8HFA801103AV,0VECFAN0072UWQ,161AFA863601YF,174.1,5888.6,115.2,45.8,9.4,0,174,dronefo...-Mavic 2 Enterprise,276DFAP001K3FQ,0K8HFA801103AV,0VECFAN0072UWQ,161AFA863601YF,,Android, 4.8.0,,,,,,
24,11/20/2018,19:41.3,2m 23.9s,143.9,39.89196377,-105.2622223,0,0,0.3,6402,0,0,0.5,0.5,0.2,0.2,-0.7,0,-3.3,-0.1,-42.2,317.8,Sport,Other,,14,5,TRUE,,Mavic 2 Enterprise,TRUE,FALSE,,Smart,RC,FALSE,TRUE,FALSE,,,TRUE,,FALSE,FALSE,FALSE,FALSE,FALSE,FALSE,FALSE,FALSE,FALSE,FALSE,0,Follow Yaw,0,0,-35.2,324.8,FALSE,FALSE,FALSE,FALSE,FALSE,TRUE,,TRUE,Card Too Slow,,,1024,1024,1684,1024,0,FALSE,FALSE,FALSE,FALSE,FALSE,0,FALSE,FALSE,FALSE,FALSE,44,,,,15.237,FALSE,3.811,3.811,3.81,3.802,0.009,FALSE,FALSE,,,,,0,2,0,15,10,6861.1,1759.27,,Idle,0,25,FALSE,10,TRUE,,Go Home,39.89195112,-105.2622207,4.6,6144.8,393.7,TRUE,1,1,FALSE,FALSE,FALSE,FALSE,0,TRUE,FALSE,FALSE,Course Lock,98.4,,16.4,Calm,6,Android, 4.8.0,dronefo...-Mavic 2 Enterprise,276DFAP001K3FQ,0K8HFA801103AV,0VECFAN0072UWQ,161AFA863601YF,174.1,5888.6,115.2,45.8,9.4,0,174,dronefo...-Mavic 2 Enterprise,276DFAP001K3FQ,0K8HFA801103AV,0VECFAN0072UWQ,161AFA863601YF,,Android, 4.8.0,,,,,,
25,11/20/2018,19:41.4,2m 24.0s,144,39.89196397,-105.2622223,0,0,0.7,6402,0,0,0.7,0.7,0,0.2,-1.1,0,-0.3,-2.1,-42.2,317.8,Sport,Other,,14,5,TRUE,,Mavic 2 Enterprise,TRUE,FALSE,,Smart,RC,FALSE,TRUE,FALSE,,,TRUE,,FALSE,FALSE,FALSE,FALSE,FALSE,FALSE,FALSE,FALSE,FALSE,FALSE,0,Follow Yaw,0,0,-35.2,324.8,FALSE,FALSE,FALSE,FALSE,FALSE,TRUE,,TRUE,Card Too Slow,,,1024,1024,1684,1024,0,FALSE,FALSE,FALSE,FALSE,FALSE,0,FALSE,FALSE,FALSE,FALSE,44,,,,15.237,FALSE,3.811,3.811,3.81,3.802,0.009,FALSE,FALSE,,,,,0,2,0,15,10,6861.1,1759.27,,Idle,0,25,FALSE,10,TRUE,,Go Home,39.89195112,-105.2622207,4.7,6144.8,393.7,TRUE,1,1,FALSE,FALSE,FALSE,FALSE,0,TRUE,FALSE,FALSE,Course Lock,98.4,,16.4,Calm,6,Android, 4.8.0,dronefo...-Mavic 2 Enterprise,276DFAP001K3FQ,0K8HFA801103AV,0VECFAN0072UWQ,161AFA863601YF,174.1,5888.6,115.2,45.8,9.4,0,174,dronefo...-Mavic 2 Enterprise,276DFAP001K3FQ,0K8HFA801103AV,0VECFAN0072UWQ,161AFA863601YF,,Android, 4.8.0,,,,,,
26,11/20/2018,19:41.5,2m 24.1s,144.1,39.89196422,-105.2622222,0.3,0.3,0.7,6402,0,0,0.5,0.7,0,0.2,-1.6,0,1.5,-3,-42.4,317.6,Sport,Other,,14,5,TRUE,,Mavic 2 Enterprise,TRUE,FALSE,,Smart,RC,FALSE,TRUE,FALSE,,,TRUE,,FALSE,FALSE,FALSE,FALSE,FALSE,FALSE,FALSE,FALSE,FALSE,FALSE,0,Follow Yaw,0,0,-35.2,324.8,FALSE,FALSE,FALSE,FALSE,FALSE,TRUE,,TRUE,Card Too Slow,,,1024,1024,1684,1024,0,FALSE,FALSE,FALSE,FALSE,FALSE,0,FALSE,FALSE,FALSE,FALSE,44,,,,15.237,FALSE,3.811,3.811,3.81,3.802,0.009,FALSE,FALSE,,,,,0,2,0,15,10,6861.1,1759.27,,Idle,0,25,FALSE,10,TRUE,,Go Home,39.89195112,-105.2622207,4.8,6144.8,393.7,TRUE,1,1,FALSE,FALSE,FALSE,FALSE,0,TRUE,FALSE,FALSE,Course Lock,98.4,,16.4,Calm,6,Android, 4.8.0,dronefo...-Mavic 2 Enterprise,276DFAP001K3FQ,0K8HFA801103AV,0VECFAN0072UWQ,161AFA863601YF,174.1,5888.6,115.2,45.8,9.4,0,174,dronefo...-Mavic 2 Enterprise,276DFAP001K3FQ,0K8HFA801103AV,0VECFAN0072UWQ,161AFA863601YF,,Android, 4.8.0,,,,,,
27,11/20/2018,19:41.6,2m 24.2s,144.2,39.89196432,-105.2622221,0.7,0.7,0.7,6403,0,0,0.2,0.7,0,0.2,-2.2,0,2.4,-2.6,-42.4,317.6,Sport,Other,,14,5,TRUE,,Mavic 2 Enterprise,TRUE,FALSE,,Smart,RC,FALSE,TRUE,FALSE,,,TRUE,,FALSE,FALSE,FALSE,FALSE,FALSE,FALSE,FALSE,FALSE,FALSE,FALSE,0,Follow Yaw,0,0,-35.2,324.8,FALSE,FALSE,FALSE,FALSE,FALSE,TRUE,,TRUE,Card Too Slow,,,1024,1024,1684,1045,0,FALSE,FALSE,FALSE,FALSE,FALSE,0,FALSE,FALSE,FALSE,FALSE,44,,,,15.25,FALSE,3.819,3.819,3.811,3.801,0.018,FALSE,FALSE,,,,,0,2,0,15,10,6861.1,1759.27,,Idle,0,25,FALSE,10,TRUE,,Go Home,39.89195112,-105.2622207,4.8,6144.8,393.7,TRUE,1,1,FALSE,FALSE,FALSE,FALSE,0,TRUE,FALSE,FALSE,Course Lock,98.4,,16.4,Calm,6,Android, 4.8.0,dronefo...-Mavic 2 Enterprise,276DFAP001K3FQ,0K8HFA801103AV,0VECFAN0072UWQ,161AFA863601YF,174.1,5888.6,115.2,45.8,9.4,0,174,dronefo...-Mavic 2 Enterprise,276DFAP001K3FQ,0K8HFA801103AV,0VECFAN0072UWQ,161AFA863601YF,,Android, 4.8.0,,,,,,
28,11/20/2018,19:41.7,2m 24.3s,144.3,39.89196444,-105.262222,1,1,1.3,6403,0,0,0.2,0.7,0.2,0.2,-2.9,0,1.4,-2,-42.3,317.7,Sport,Other,,14,5,TRUE,,Mavic 2 Enterprise,TRUE,FALSE,,Smart,RC,FALSE,TRUE,FALSE,,,TRUE,,FALSE,FALSE,FALSE,FALSE,FALSE,FALSE,FALSE,FALSE,FALSE,FALSE,0,Follow Yaw,0,0,-35.2,324.8,FALSE,FALSE,FALSE,FALSE,FALSE,TRUE,,TRUE,Card Too Slow,,,1024,1024,1684,1024,0,FALSE,FALSE,FALSE,FALSE,FALSE,0,FALSE,FALSE,FALSE,FALSE,44,,,,15.25,FALSE,3.819,3.819,3.811,3.801,0.018,FALSE,FALSE,,,,,0,2,0,15,10,6861.1,1759.27,,Idle,0,25,FALSE,10,TRUE,,Go Home,39.89195112,-105.2622207,4.9,6144.8,393.7,TRUE,1,1,FALSE,FALSE,FALSE,FALSE,0,TRUE,FALSE,FALSE,Course Lock,98.4,,16.4,Calm,6,Android, 4.8.0,dronefo...-Mavic 2 Enterprise,276DFAP001K3FQ,0K8HFA801103AV,0VECFAN0072UWQ,161AFA863601YF,174.1,5888.6,115.2,45.8,9.4,0,174,dronefo...-Mavic 2 Enterprise,276DFAP001K3FQ,0K8HFA801103AV,0VECFAN0072UWQ,161AFA863601YF,,Android, 4.8.0,,,,,,
29,11/20/2018,19:41.8,2m 24.4s,144.4,39.89196468,-105.2622215,1.6,1.6,1.6,6404,1.1,1.1,0,0.7,0.2,0.2,-4,0,0,-1.5,-42.2,317.8,Sport,Other,,14,5,TRUE,,Mavic 2 Enterprise,TRUE,FALSE,,Smart,RC,FALSE,TRUE,FALSE,,,TRUE,,FALSE,FALSE,FALSE,FALSE,FALSE,FALSE,FALSE,FALSE,FALSE,FALSE,0,Follow Yaw,0,0,-35.2,324.8,FALSE,FALSE,FALSE,FALSE,FALSE,TRUE,,TRUE,Card Too Slow,,,1024,1024,1684,1024,0,FALSE,FALSE,FALSE,FALSE,FALSE,0,FALSE,FALSE,FALSE,FALSE,44,,,,15.25,FALSE,3.819,3.819,3.811,3.801,0.018,FALSE,FALSE,,,,,0,2,0,15,10,6861.1,1759.27,,Idle,0,25,FALSE,10,TRUE,,Go Home,39.89195112,-105.2622207,4.9,6144.8,393.7,TRUE,1,1,FALSE,FALSE,FALSE,FALSE,0,TRUE,FALSE,FALSE,Course Lock,98.4,,16.4,Calm,6,Android, 4.8.0,dronefo...-Mavic 2 Enterprise,276DFAP001K3FQ,0K8HFA801103AV,0VECFAN0072UWQ,161AFA863601YF,174.1,5888.6,115.2,45.8,9.4,0,174,dronefo...-Mavic 2 Enterprise,276DFAP001K3FQ,0K8HFA801103AV,0VECFAN0072UWQ,161AFA863601YF,,Android, 4.8.0,,,,,,
30,11/20/2018,19:41.9,2m 24.5s,144.5,39.89196474,-105.2622214,2.3,2.3,2.3,6404,0,1.1,0,0.7,0.2,0.2,-4.9,0,-0.9,-1.6,-42.1,317.9,Sport,Other,,14,5,TRUE,,Mavic 2 Enterprise,TRUE,FALSE,,Smart,RC,FALSE,TRUE,FALSE,,,TRUE,,FALSE,FALSE,FALSE,FALSE,FALSE,FALSE,FALSE,FALSE,FALSE,FALSE,0,Follow Yaw,0,0,-35.2,324.8,FALSE,FALSE,FALSE,FALSE,FALSE,TRUE,,TRUE,Card Too Slow,,,1024,1024,1684,1024,0,FALSE,FALSE,FALSE,FALSE,FALSE,0,FALSE,FALSE,FALSE,FALSE,44,,,,15.25,FALSE,3.819,3.819,3.811,3.801,0.018,FALSE,FALSE,,,,,0,2,0,15,10,6861.1,1759.27,,Idle,0,25,FALSE,10,TRUE,,Go Home,39.89195112,-105.2622207,5,6144.8,393.7,TRUE,1,1,FALSE,FALSE,FALSE,FALSE,0,TRUE,FALSE,FALSE,Course Lock,98.4,,16.4,Calm,6,Android, 4.8.0,dronefo...-Mavic 2 Enterprise,276DFAP001K3FQ,0K8HFA801103AV,0VECFAN0072UWQ,161AFA863601YF,174.1,5888.6,115.2,45.8,9.4,0,174,dronefo...-Mavic 2 Enterprise,276DFAP001K3FQ,0K8HFA801103AV,0VECFAN0072UWQ,161AFA863601YF,,Android, 4.8.0,,,,,,
31,11/20/2018,19:42.0,2m 24.6s,144.6,39.89196471,-105.2622209,3,3,3.3,6405,0,1.1,0.2,0.7,0.2,0.2,-6,0,-1,-2.1,-42.1,317.9,Sport,Other,,14,5,TRUE,,Mavic 2 Enterprise,TRUE,FALSE,,Smart,RC,FALSE,TRUE,FALSE,,,TRUE,,FALSE,FALSE,FALSE,FALSE,FALSE,FALSE,FALSE,FALSE,FALSE,FALSE,0,Follow Yaw,0,0,-35.2,324.8,FALSE,FALSE,FALSE,FALSE,FALSE,TRUE,,TRUE,Card Too Slow,,,1024,1024,1684,1024,0,FALSE,FALSE,FALSE,FALSE,FALSE,0,FALSE,FALSE,FALSE,FALSE,44,,,,15.17,FALSE,3.819,3.819,3.811,3.801,0.018,FALSE,FALSE,,,,,0,0,0,15,10,8544.8,2190.96,,Idle,0,25,FALSE,10,TRUE,,Go Home,39.89196354,-105.2622224,0.6,6144.8,393.7,TRUE,1,1,FALSE,FALSE,FALSE,FALSE,0,TRUE,FALSE,FALSE,Course Lock,98.4,,16.4,Calm,6,Android, 4.8.0,dronefo...-Mavic 2 Enterprise,276DFAP001K3FQ,0K8HFA801103AV,0VECFAN0072UWQ,161AFA863601YF,174.1,5888.6,115.2,45.8,9.4,0,174,dronefo...-Mavic 2 Enterprise,276DFAP001K3FQ,0K8HFA801103AV,0VECFAN0072UWQ,161AFA863601YF,,Android, 4.8.0,,,,Home Point Updated.,,
32,11/20/2018,19:42.1,2m 24.7s,144.7,39.89196476,-105.2622207,3.9,3.9,4.3,6406,1.5,1.5,0,0.7,0.2,0.2,-6.9,0,-0.9,-2.5,-42.1,317.9,Sport,Other,,14,5,TRUE,,Mavic 2 Enterprise,TRUE,FALSE,,Smart,RC,FALSE,TRUE,FALSE,,,TRUE,,FALSE,FALSE,FALSE,FALSE,FALSE,FALSE,FALSE,FALSE,FALSE,FALSE,0,Follow Yaw,0,0,-35.2,324.8,FALSE,FALSE,FALSE,FALSE,FALSE,TRUE,,TRUE,Card Too Slow,,,1024,1024,1684,1058,0,FALSE,FALSE,FALSE,FALSE,FALSE,0,FALSE,FALSE,FALSE,FALSE,44,,,,15.17,FALSE,3.819,3.819,3.811,3.801,0.018,FALSE,FALSE,,,,,0,0,0,15,10,8544.8,2190.96,,Idle,0,25,FALSE,10,TRUE,,Go Home,39.89196354,-105.2622224,0.6,6144.8,393.7,TRUE,1,1,FALSE,FALSE,FALSE,FALSE,0,TRUE,FALSE,FALSE,Course Lock,98.4,,16.4,Calm,6,Android, 4.8.0,dronefo...-Mavic 2 Enterprise,276DFAP001K3FQ,0K8HFA801103AV,0VECFAN0072UWQ,161AFA863601YF,174.1,5888.6,115.2,45.8,9.4,0,174,dronefo...-Mavic 2 Enterprise,276DFAP001K3FQ,0K8HFA801103AV,0VECFAN0072UWQ,161AFA863601YF,,Android, 4.8.0,,,,,Home Point recorded. Return-to-Home Altitude:98.4 ft.,
33,11/20/2018,19:42.2,2m 24.8s,144.8,39.89196459,-105.2622207,4.9,4.9,5.6,6407,0,1.5,0,0.7,0.2,0.2,-7.8,0,-0.7,-2.8,-42.1,317.9,Sport,Other,,14,5,TRUE,,Mavic 2 Enterprise,TRUE,FALSE,,Smart,RC,FALSE,TRUE,FALSE,,,TRUE,,FALSE,FALSE,FALSE,FALSE,FALSE,FALSE,FALSE,FALSE,FALSE,FALSE,0,Follow Yaw,0,0,-35,325,FALSE,FALSE,FALSE,FALSE,FALSE,TRUE,,TRUE,Card Too Slow,,,1024,1024,1684,1112,0,FALSE,FALSE,FALSE,FALSE,FALSE,0,FALSE,FALSE,FALSE,FALSE,44,,,,15.17,FALSE,3.819,3.819,3.811,3.801,0.018,FALSE,FALSE,,,,,0,0,0,15,10,8544.8,2190.96,,Idle,0,25,FALSE,10,TRUE,,Go Home,39.89196354,-105.2622224,0.5,6144.8,393.7,TRUE,1,1,FALSE,FALSE,FALSE,FALSE,0,TRUE,FALSE,FALSE,Course Lock,98.4,,16.4,Calm,6,Android, 4.8.0,dronefo...-Mavic 2 Enterprise,276DFAP001K3FQ,0K8HFA801103AV,0VECFAN0072UWQ,161AFA863601YF,174.1,5888.6,115.2,45.8,9.4,0,174,dronefo...-Mavic 2 Enterprise,276DFAP001K3FQ,0K8HFA801103AV,0VECFAN0072UWQ,161AFA863601YF,,Android, 4.8.0,,,,,,
34,11/20/2018,19:42.3,2m 24.9s,144.9,39.8919646,-105.2622206,6.2,6.2,6.9,6408,0,1.5,0,0.7,0,0.2,-8.5,0,-0.4,-2.9,-41.8,318.2,Sport,Other,,14,5,TRUE,,Mavic 2 Enterprise,TRUE,FALSE,,Smart,RC,FALSE,TRUE,FALSE,,,TRUE,,FALSE,FALSE,FALSE,FALSE,FALSE,FALSE,FALSE,FALSE,FALSE,FALSE,0,Follow Yaw,0,0,-34.3,325.7,FALSE,FALSE,FALSE,FALSE,FALSE,TRUE,,TRUE,Card Too Slow,,,1024,1024,1684,1162,0,FALSE,FALSE,FALSE,FALSE,FALSE,0,FALSE,FALSE,FALSE,FALSE,44,,,,15.17,FALSE,3.819,3.819,3.811,3.801,0.018,FALSE,FALSE,,,,,0,0,0,15,10,8544.8,2190.96,,Idle,0,25,FALSE,10,TRUE,,Go Home,39.89196354,-105.2622224,0.6,6144.8,393.7,TRUE,1,1,FALSE,FALSE,FALSE,FALSE,0,TRUE,FALSE,FALSE,Course Lock,98.4,,16.4,Calm,6,Android, 4.8.0,dronefo...-Mavic 2 Enterprise,276DFAP001K3FQ,0K8HFA801103AV,0VECFAN0072UWQ,161AFA863601YF,174.1,5888.6,115.2,45.8,9.4,0,174,dronefo...-Mavic 2 Enterprise,276DFAP001K3FQ,0K8HFA801103AV,0VECFAN0072UWQ,161AFA863601YF,,Android, 4.8.0,,,,,,
35,11/20/2018,19:42.4,2m 25.0s,145,39.8919645,-105.2622204,7.5,7.5,8.2,6409,0,1.5,0,0.7,0,0.2,-9,0,0,-2.7,-41,319,Sport,Other,,14,5,TRUE,,Mavic 2 Enterprise,TRUE,FALSE,,Smart,RC,FALSE,TRUE,FALSE,,,TRUE,,FALSE,FALSE,FALSE,FALSE,FALSE,FALSE,FALSE,FALSE,FALSE,FALSE,0,Follow Yaw,0,0,-33,327,FALSE,FALSE,FALSE,FALSE,FALSE,TRUE,,TRUE,Card Too Slow,,,1024,1024,1679,1164,0,FALSE,FALSE,FALSE,FALSE,FALSE,0,FALSE,FALSE,FALSE,FALSE,44,,,,15.17,FALSE,3.819,3.819,3.811,3.801,0.018,FALSE,FALSE,,,,,0,0,0,15,10,8544.8,2190.96,,Idle,0,25,FALSE,10,TRUE,,Go Home,39.89196354,-105.2622224,0.6,6144.8,393.7,TRUE,1,1,FALSE,FALSE,FALSE,FALSE,0,TRUE,FALSE,FALSE,Course Lock,98.4,,16.4,Calm,6,Android, 4.8.0,dronefo...-Mavic 2 Enterprise,276DFAP001K3FQ,0K8HFA801103AV,0VECFAN0072UWQ,161AFA863601YF,174.1,5888.6,115.2,45.8,9.4,0,174,dronefo...-Mavic 2 Enterprise,276DFAP001K3FQ,0K8HFA801103AV,0VECFAN0072UWQ,161AFA863601YF,,Android, 4.8.0,,,,,,
36,11/20/2018,19:42.5,2m 25.1s,145.1,39.89196446,-105.2622203,8.9,8.9,9.5,6411,0,1.5,0,0.7,0,0.2,-9.4,0,0.1,-2.7,-39.8,320.2,Sport,Other,,14,5,TRUE,,Mavic 2 Enterprise,TRUE,FALSE,,Smart,RC,FALSE,TRUE,FALSE,,,TRUE,,FALSE,FALSE,FALSE,FALSE,FALSE,FALSE,FALSE,FALSE,FALSE,FALSE,0,Follow Yaw,0,0,-31.7,328.3,FALSE,FALSE,FALSE,FALSE,FALSE,TRUE,,TRUE,Card Too Slow,,,1024,1024,1248,1145,0,FALSE,FALSE,FALSE,FALSE,FALSE,0,FALSE,FALSE,FALSE,FALSE,44,,,,15.17,FALSE,3.819,3.819,3.811,3.801,0.018,FALSE,FALSE,,,,,0,0,0,15,10,8544.8,2190.96,,Idle,0,25,FALSE,10,TRUE,,Go Home,39.89196354,-105.2622224,0.6,6144.8,393.7,TRUE,1,1,FALSE,FALSE,FALSE,FALSE,0,TRUE,FALSE,FALSE,Course Lock,98.4,,16.4,Calm,6,Android, 4.8.0,dronefo...-Mavic 2 Enterprise,276DFAP001K3FQ,0K8HFA801103AV,0VECFAN0072UWQ,161AFA863601YF,174.1,5888.6,115.2,45.8,9.4,0,174,dronefo...-Mavic 2 Enterprise,276DFAP001K3FQ,0K8HFA801103AV,0VECFAN0072UWQ,161AFA863601YF,,Android, 4.8.0,,,,,,
37,11/20/2018,19:42.6,2m 25.2s,145.2,39.89196439,-105.2622202,10.2,10.2,10.8,6412,0,1.5,0,0.7,0,0.2,-9.4,0,0.1,-2.3,-38.7,321.3,Sport,Other,,14,5,TRUE,,Mavic 2 Enterprise,TRUE,FALSE,,Smart,RC,FALSE,TRUE,FALSE,,,TRUE,,FALSE,FALSE,FALSE,FALSE,FALSE,FALSE,FALSE,FALSE,FALSE,FALSE,0,Follow Yaw,0,0,-31.2,328.8,FALSE,FALSE,FALSE,FALSE,FALSE,TRUE,,TRUE,Card Too Slow,,,1024,1024,1024,1024,0,FALSE,FALSE,FALSE,FALSE,FALSE,0,FALSE,FALSE,FALSE,FALSE,44,,,,14.999,FALSE,3.761,3.756,3.753,3.729,0.032,FALSE,FALSE,,,,,0,0,0,15,10,8544.8,2190.96,,Idle,0,25,FALSE,10,TRUE,,Go Home,39.89196354,-105.2622224,0.6,6144.8,393.7,TRUE,1,1,FALSE,FALSE,FALSE,FALSE,0,TRUE,FALSE,FALSE,Course Lock,98.4,,16.4,Calm,6,Android, 4.8.0,dronefo...-Mavic 2 Enterprise,276DFAP001K3FQ,0K8HFA801103AV,0VECFAN0072UWQ,161AFA863601YF,174.1,5888.6,115.2,45.8,9.4,0,174,dronefo...-Mavic 2 Enterprise,276DFAP001K3FQ,0K8HFA801103AV,0VECFAN0072UWQ,161AFA863601YF,,Android, 4.8.0,,,,,,
38,11/20/2018,19:42.7,2m 25.3s,145.3,39.89196432,-105.2622201,11.8,11.8,12.1,6414,0,1.5,0,0.7,0,0.2,-9,0,0.6,-2.2,-38.4,321.6,Sport,Other,,14,5,TRUE,,Mavic 2 Enterprise,TRUE,FALSE,,Smart,RC,FALSE,TRUE,FALSE,,,TRUE,,FALSE,FALSE,FALSE,FALSE,FALSE,FALSE,FALSE,FALSE,FALSE,FALSE,0,Follow Yaw,0,0,-31.2,328.8,FALSE,FALSE,FALSE,FALSE,FALSE,TRUE,,TRUE,Card Too Slow,,,1024,1024,1024,1024,0,FALSE,FALSE,FALSE,FALSE,FALSE,0,FALSE,FALSE,FALSE,FALSE,44,,,,14.999,FALSE,3.761,3.756,3.753,3.729,0.032,FALSE,FALSE,,,,,0,0,0,15,10,8544.8,2190.96,,Idle,0,25,FALSE,10,TRUE,,Go Home,39.89196354,-105.2622224,0.6,6144.8,393.7,TRUE,1,1,FALSE,FALSE,FALSE,FALSE,0,TRUE,FALSE,FALSE,Course Lock,98.4,,16.4,Calm,6,Android, 4.8.0,dronefo...-Mavic 2 Enterprise,276DFAP001K3FQ,0K8HFA801103AV,0VECFAN0072UWQ,161AFA863601YF,174.1,5888.6,115.2,45.8,9.4,0,174,dronefo...-Mavic 2 Enterprise,276DFAP001K3FQ,0K8HFA801103AV,0VECFAN0072UWQ,161AFA863601YF,,Android, 4.8.0,,,,,,
39,11/20/2018,19:42.8,2m 25.4s,145.4,39.89196417,-105.2622199,13.1,13.1,13.5,6415,0,1.5,0,0.7,0,0.2,-8.5,0,0.9,-2.3,-38.2,321.8,Sport,Other,,14,5,TRUE,,Mavic 2 Enterprise,TRUE,FALSE,,Smart,RC,FALSE,TRUE,FALSE,,,TRUE,,FALSE,FALSE,FALSE,FALSE,FALSE,FALSE,FALSE,FALSE,FALSE,FALSE,0,Follow Yaw,0,0,-31.2,328.8,FALSE,FALSE,FALSE,FALSE,FALSE,TRUE,,TRUE,Card Too Slow,,,1024,1024,1024,1024,0,FALSE,FALSE,FALSE,FALSE,FALSE,0,FALSE,FALSE,FALSE,FALSE,44,,,,14.999,FALSE,3.761,3.756,3.753,3.729,0.032,FALSE,FALSE,,,,,0,0,0,15,10,8544.8,2190.96,,Idle,0,25,FALSE,10,TRUE,,Go Home,39.89196354,-105.2622224,0.6,6144.8,393.7,TRUE,1,1,FALSE,FALSE,FALSE,FALSE,0,TRUE,FALSE,FALSE,Course Lock,98.4,,16.4,Calm,6,Android, 4.8.0,dronefo...-Mavic 2 Enterprise,276DFAP001K3FQ,0K8HFA801103AV,0VECFAN0072UWQ,161AFA863601YF,174.1,5888.6,115.2,45.8,9.4,0,174,dronefo...-Mavic 2 Enterprise,276DFAP001K3FQ,0K8HFA801103AV,0VECFAN0072UWQ,161AFA863601YF,,Android, 4.8.0,,,,,,
40,11/20/2018,19:42.9,2m 25.5s,145.5,39.89196406,-105.2622197,14.1,14.1,14.8,6416,0,1.5,0,0.7,0,0.2,-7.8,0,1.1,-2.6,-38.2,321.8,Sport,Other,,14,5,TRUE,,Mavic 2 Enterprise,TRUE,FALSE,,Smart,RC,FALSE,TRUE,FALSE,,,TRUE,,FALSE,FALSE,FALSE,FALSE,FALSE,FALSE,FALSE,FALSE,FALSE,FALSE,0,Follow Yaw,0,0,-31.2,328.8,FALSE,FALSE,FALSE,FALSE,FALSE,TRUE,,TRUE,Card Too Slow,,,1024,1024,1024,1024,0,FALSE,FALSE,FALSE,FALSE,FALSE,0,FALSE,FALSE,FALSE,FALSE,44,,,,14.999,FALSE,3.761,3.756,3.753,3.729,0.032,FALSE,FALSE,,,,,0,0,0,15,10,8544.8,2190.96,,Idle,0,25,FALSE,10,TRUE,,Go Home,39.89196354,-105.2622224,0.8,6144.8,393.7,TRUE,1,1,FALSE,FALSE,FALSE,FALSE,0,TRUE,FALSE,FALSE,Course Lock,98.4,,16.4,Calm,6,Android, 4.8.0,dronefo...-Mavic 2 Enterprise,276DFAP001K3FQ,0K8HFA801103AV,0VECFAN0072UWQ,161AFA863601YF,174.1,5888.6,115.2,45.8,9.4,0,174,dronefo...-Mavic 2 Enterprise,276DFAP001K3FQ,0K8HFA801103AV,0VECFAN0072UWQ,161AFA863601YF,,Android, 4.8.0,,,,,,
41,11/20/2018,19:43.0,2m 25.6s,145.6,39.89196398,-105.2622198,15.4,15.4,15.7,6417,0,1.5,0,0.7,0,0.2,-7.2,0,0.9,-2.8,-38.3,321.7,Sport,Other,,14,5,TRUE,,Mavic 2 Enterprise,TRUE,FALSE,,Smart,RC,FALSE,TRUE,FALSE,,,TRUE,,FALSE,FALSE,FALSE,FALSE,FALSE,FALSE,FALSE,FALSE,FALSE,FALSE,0,Follow Yaw,0,0,-31.2,328.8,FALSE,FALSE,FALSE,FALSE,FALSE,TRUE,,TRUE,Card Too Slow,,,1024,1024,1024,1024,0,FALSE,FALSE,FALSE,FALSE,FALSE,0,FALSE,FALSE,FALSE,FALSE,44,,,,15.09,FALSE,3.761,3.756,3.753,3.729,0.032,FALSE,FALSE,,,,,0,0,1,15,10,12075.5,3096.28,,Idle,0,25,FALSE,10,TRUE,,Go Home,39.89196354,-105.2622224,0.8,6144.8,393.7,TRUE,1,1,FALSE,FALSE,FALSE,FALSE,0,TRUE,FALSE,FALSE,Course Lock,98.4,,16.4,Calm,6,Android, 4.8.0,dronefo...-Mavic 2 Enterprise,276DFAP001K3FQ,0K8HFA801103AV,0VECFAN0072UWQ,161AFA863601YF,174.1,5888.6,115.2,45.8,9.4,0,174,dronefo...-Mavic 2 Enterprise,276DFAP001K3FQ,0K8HFA801103AV,0VECFAN0072UWQ,161AFA863601YF,,Android, 4.8.0,,,,,,
42,11/20/2018,19:43.1,2m 25.7s,145.7,39.89196384,-105.2622196,16.4,16.4,16.7,6418,0,1.5,0,0.7,0,0.2,-6.3,0,0.4,-2.8,-38.2,321.8,Sport,Other,,14,5,TRUE,,Mavic 2 Enterprise,TRUE,FALSE,,Smart,RC,FALSE,TRUE,FALSE,,,TRUE,,FALSE,FALSE,FALSE,FALSE,FALSE,FALSE,FALSE,FALSE,FALSE,FALSE,0,Follow Yaw,0,0,-31.2,328.8,FALSE,FALSE,FALSE,FALSE,FALSE,TRUE,,TRUE,Card Too Slow,,,1024,1024,1024,1024,1,FALSE,FALSE,FALSE,FALSE,FALSE,0,FALSE,FALSE,FALSE,FALSE,44,,,,15.09,FALSE,3.761,3.756,3.753,3.729,0.032,FALSE,FALSE,,,,,0,0,1,15,10,12075.5,3096.28,,Idle,0,25,FALSE,10,TRUE,,Go Home,39.89196354,-105.2622224,0.7,6144.8,393.7,TRUE,1,1,FALSE,FALSE,FALSE,FALSE,0,TRUE,FALSE,FALSE,Course Lock,98.4,,16.4,Calm,6,Android, 4.8.0,dronefo...-Mavic 2 Enterprise,276DFAP001K3FQ,0K8HFA801103AV,0VECFAN0072UWQ,161AFA863601YF,174.1,5888.6,115.2,45.8,9.4,0,174,dronefo...-Mavic 2 Enterprise,276DFAP001K3FQ,0K8HFA801103AV,0VECFAN0072UWQ,161AFA863601YF,,Android, 4.8.0,,,,,,
43,11/20/2018,19:43.1,2m 25.8s,145.8,39.89196383,-105.2622195,17.4,17.4,17.4,6419,0,1.5,0,0.7,0,0.2,-5.4,0,0,-2.6,-38.2,321.8,P-GPS,Other,,14,5,TRUE,,Mavic 2 Enterprise,TRUE,FALSE,,Smart,RC,FALSE,TRUE,FALSE,,,TRUE,,FALSE,FALSE,FALSE,FALSE,FALSE,FALSE,FALSE,FALSE,FALSE,FALSE,0,Follow Yaw,0,0,-31.2,328.8,FALSE,FALSE,FALSE,FALSE,FALSE,TRUE,,TRUE,Card Too Slow,,,1024,1024,1024,1024,1,FALSE,FALSE,FALSE,FALSE,FALSE,0,FALSE,FALSE,FALSE,FALSE,44,,,,15.09,FALSE,3.761,3.756,3.753,3.729,0.032,FALSE,FALSE,,,,,0,0,1,15,10,12075.5,3096.28,,Idle,0,25,FALSE,10,TRUE,,Go Home,39.89196354,-105.2622224,0.8,6144.8,393.7,TRUE,1,1,FALSE,FALSE,FALSE,FALSE,0,TRUE,FALSE,FALSE,Course Lock,98.4,,16.4,Calm,6,Android, 4.8.0,dronefo...-Mavic 2 Enterprise,276DFAP001K3FQ,0K8HFA801103AV,0VECFAN0072UWQ,161AFA863601YF,174.1,5888.6,115.2,45.8,9.4,0,174,dronefo...-Mavic 2 Enterprise,276DFAP001K3FQ,0K8HFA801103AV,0VECFAN0072UWQ,161AFA863601YF,,Android, 4.8.0,,,,,Switched to P (Positioning)-mode.,
44,11/20/2018,19:43.3,2m 25.9s,145.9,39.89196368,-105.2622194,18,18,18.4,6420,0,1.5,0,0.7,0,0.2,-4.5,0,-0.2,-2.4,-38.2,321.8,P-GPS,Other,,14,5,TRUE,,Mavic 2 Enterprise,TRUE,FALSE,,Smart,RC,FALSE,TRUE,FALSE,,,TRUE,,FALSE,FALSE,FALSE,FALSE,FALSE,FALSE,FALSE,FALSE,FALSE,FALSE,0,Follow Yaw,0,0,-31.2,328.8,FALSE,FALSE,FALSE,FALSE,FALSE,TRUE,,TRUE,Card Too Slow,,,1024,1024,1024,1024,1,FALSE,FALSE,FALSE,FALSE,FALSE,0,FALSE,FALSE,FALSE,FALSE,44,,,,15.09,FALSE,3.761,3.756,3.753,3.729,0.032,FALSE,FALSE,,,,,0,0,1,15,10,12075.5,3096.28,,Idle,0,25,FALSE,10,TRUE,,Go Home,39.89196354,-105.2622224,0.9,6144.8,393.7,TRUE,1,1,FALSE,FALSE,FALSE,FALSE,0,TRUE,FALSE,FALSE,Course Lock,98.4,,16.4,Calm,6,Android, 4.8.0,dronefo...-Mavic 2 Enterprise,276DFAP001K3FQ,0K8HFA801103AV,0VECFAN0072UWQ,161AFA863601YF,174.1,5888.6,115.2,45.8,9.4,0,174,dronefo...-Mavic 2 Enterprise,276DFAP001K3FQ,0K8HFA801103AV,0VECFAN0072UWQ,161AFA863601YF,,Android, 4.8.0,,,,,,
45,11/20/2018,19:43.4,2m 26.0s,146,39.89196357,-105.2622192,18.7,18.7,18.7,6421,0,1.5,0,0.7,0,0.2,-3.6,0,-0.6,-2.2,-38.2,321.8,P-GPS,Other,,14,5,TRUE,,Mavic 2 Enterprise,TRUE,FALSE,,Smart,RC,FALSE,TRUE,FALSE,,,TRUE,,FALSE,FALSE,FALSE,FALSE,FALSE,FALSE,FALSE,FALSE,FALSE,FALSE,0,Follow Yaw,0,0,-31.2,328.8,FALSE,FALSE,FALSE,FALSE,FALSE,TRUE,,TRUE,Card Too Slow,,,1024,1024,1024,1024,1,FALSE,FALSE,FALSE,FALSE,FALSE,0,FALSE,FALSE,FALSE,FALSE,44,,,,15.09,FALSE,3.761,3.756,3.753,3.729,0.032,FALSE,FALSE,,,,,0,0,1,15,10,12075.5,3096.28,,Idle,0,25,FALSE,10,TRUE,,Go Home,39.89196354,-105.2622224,0.9,6144.8,393.7,TRUE,1,1,FALSE,FALSE,FALSE,FALSE,0,TRUE,FALSE,FALSE,Course Lock,98.4,,16.4,Calm,6,Android, 4.8.0,dronefo...-Mavic 2 Enterprise,276DFAP001K3FQ,0K8HFA801103AV,0VECFAN0072UWQ,161AFA863601YF,174.1,5888.6,115.2,45.8,9.4,0,174,dronefo...-Mavic 2 Enterprise,276DFAP001K3FQ,0K8HFA801103AV,0VECFAN0072UWQ,161AFA863601YF,,Android, 4.8.0,,,,,,
46,11/20/2018,19:43.5,2m 26.1s,146.1,39.89196343,-105.262219,19.4,19.4,19,6421,0,1.5,0,0.7,0,0.2,-2.7,0,-1.1,-2.1,-38.2,321.8,P-GPS,Other,,14,5,TRUE,,Mavic 2 Enterprise,TRUE,FALSE,,Smart,RC,FALSE,TRUE,FALSE,,,TRUE,,FALSE,FALSE,FALSE,FALSE,FALSE,FALSE,FALSE,FALSE,FALSE,FALSE,0,Follow Yaw,0,0,-31.2,328.8,FALSE,FALSE,FALSE,FALSE,FALSE,TRUE,,TRUE,Card Too Slow,,,1024,1024,1024,1024,1,FALSE,FALSE,FALSE,FALSE,FALSE,0,FALSE,FALSE,FALSE,FALSE,44,,,,15.09,FALSE,3.761,3.756,3.753,3.729,0.032,FALSE,FALSE,,,,,0,0,1,15,10,12075.5,3096.28,,Idle,0,25,FALSE,10,TRUE,,Go Home,39.89196354,-105.2622224,0.9,6144.8,393.7,TRUE,1,1,FALSE,FALSE,FALSE,FALSE,0,TRUE,FALSE,FALSE,Course Lock,98.4,,16.4,Calm,6,Android, 4.8.0,dronefo...-Mavic 2 Enterprise,276DFAP001K3FQ,0K8HFA801103AV,0VECFAN0072UWQ,161AFA863601YF,174.1,5888.6,115.2,45.8,9.4,0,174,dronefo...-Mavic 2 Enterprise,276DFAP001K3FQ,0K8HFA801103AV,0VECFAN0072UWQ,161AFA863601YF,,Android, 4.8.0,,,,,,
47,11/20/2018,19:43.6,2m 26.2s,146.2,39.89196325,-105.2622192,19.7,19.7,19.4,6422,0,1.5,0,0.7,0.2,0.2,-1.6,0,-1.5,-2.1,-38.2,321.8,P-GPS,Other,,14,5,TRUE,,Mavic 2 Enterprise,TRUE,FALSE,,Smart,RC,FALSE,TRUE,FALSE,,,TRUE,,FALSE,FALSE,FALSE,FALSE,FALSE,FALSE,FALSE,FALSE,FALSE,FALSE,0,Follow Yaw,0,0,-31.2,328.8,FALSE,FALSE,FALSE,FALSE,FALSE,TRUE,,TRUE,Card Too Slow,,,1024,1024,1024,1024,1,FALSE,FALSE,FALSE,FALSE,FALSE,0,FALSE,FALSE,FALSE,FALSE,44,,,,15.07,FALSE,3.771,3.771,3.771,3.757,0.032,FALSE,FALSE,,,,,0,0,1,15,10,12075.5,3096.28,,Idle,0,25,FALSE,10,TRUE,,Go Home,39.89196354,-105.2622224,0.9,6144.8,393.7,TRUE,1,1,FALSE,FALSE,FALSE,FALSE,0,TRUE,FALSE,FALSE,Course Lock,98.4,,16.4,Calm,6,Android, 4.8.0,dronefo...-Mavic 2 Enterprise,276DFAP001K3FQ,0K8HFA801103AV,0VECFAN0072UWQ,161AFA863601YF,174.1,5888.6,115.2,45.8,9.4,0,174,dronefo...-Mavic 2 Enterprise,276DFAP001K3FQ,0K8HFA801103AV,0VECFAN0072UWQ,161AFA863601YF,,Android, 4.8.0,,,,,,
48,11/20/2018,19:43.7,2m 26.3s,146.3,39.89196311,-105.2622191,19.7,19.7,19.7,6422,0,1.5,0,0.7,0.2,0.2,-0.9,0,-2,-2.1,-38.2,321.8,P-GPS,Other,,14,5,TRUE,,Mavic 2 Enterprise,TRUE,FALSE,,Smart,RC,FALSE,TRUE,FALSE,,,TRUE,,FALSE,FALSE,FALSE,FALSE,FALSE,FALSE,FALSE,FALSE,FALSE,FALSE,0,Follow Yaw,0,0,-31.2,328.8,FALSE,FALSE,FALSE,FALSE,FALSE,TRUE,,TRUE,Card Too Slow,,,1024,1024,1024,1024,1,FALSE,FALSE,FALSE,FALSE,FALSE,0,FALSE,FALSE,FALSE,FALSE,44,,,,15.07,FALSE,3.771,3.771,3.771,3.757,0.032,FALSE,FALSE,,,,,0,0,1,15,10,12075.5,3096.28,,Idle,0,25,FALSE,10,TRUE,,Go Home,39.89196354,-105.2622224,1,6144.8,393.7,TRUE,1,1,FALSE,FALSE,FALSE,FALSE,0,TRUE,FALSE,FALSE,Course Lock,98.4,,16.4,Calm,6,Android, 4.8.0,dronefo...-Mavic 2 Enterprise,276DFAP001K3FQ,0K8HFA801103AV,0VECFAN0072UWQ,161AFA863601YF,174.1,5888.6,115.2,45.8,9.4,0,174,dronefo...-Mavic 2 Enterprise,276DFAP001K3FQ,0K8HFA801103AV,0VECFAN0072UWQ,161AFA863601YF,,Android, 4.8.0,,,,,,
49,11/20/2018,19:43.8,2m 26.4s,146.4,39.89196297,-105.2622189,19.7,19.7,19.7,6422,0,1.5,-0.2,0.7,0.2,0.2,-0.2,0,-2.3,-2,-38.1,321.9,P-GPS,Other,,14,5,TRUE,,Mavic 2 Enterprise,TRUE,FALSE,,Smart,RC,FALSE,TRUE,FALSE,,,TRUE,,FALSE,FALSE,FALSE,FALSE,FALSE,FALSE,FALSE,FALSE,FALSE,FALSE,0,Follow Yaw,0,0,-31.2,328.8,FALSE,FALSE,FALSE,FALSE,FALSE,TRUE,,TRUE,Card Too Slow,,,1024,1024,1024,1024,0,FALSE,FALSE,FALSE,FALSE,FALSE,0,FALSE,FALSE,FALSE,FALSE,44,,,,15.07,FALSE,3.771,3.771,3.771,3.757,0.032,FALSE,FALSE,,,,,0,0,1,15,10,12075.5,3096.28,,Idle,0,25,FALSE,10,TRUE,,Go Home,39.89196354,-105.2622224,1,6144.8,393.7,TRUE,1,1,FALSE,FALSE,FALSE,FALSE,0,TRUE,FALSE,FALSE,Course Lock,98.4,,16.4,Calm,6,Android, 4.8.0,dronefo...-Mavic 2 Enterprise,276DFAP001K3FQ,0K8HFA801103AV,0VECFAN0072UWQ,161AFA863601YF,174.1,5888.6,115.2,45.8,9.4,0,174,dronefo...-Mavic 2 Enterprise,276DFAP001K3FQ,0K8HFA801103AV,0VECFAN0072UWQ,161AFA863601YF,,Android, 4.8.0,,,,,Switched to P (Positioning)-mode.,
50,11/20/2018,19:43.9,2m 26.5s,146.5,39.89196286,-105.2622188,19.7,19.7,19.7,6422,1.1,1.5,0,0.7,0,0.2,0,0,-2.5,-1.9,-38.1,321.9,Sport,Other,,14,5,TRUE,,Mavic 2 Enterprise,TRUE,FALSE,,Smart,RC,FALSE,TRUE,FALSE,,,TRUE,,FALSE,FALSE,FALSE,FALSE,FALSE,FALSE,FALSE,FALSE,FALSE,FALSE,0,Follow Yaw,0,0,-31.2,328.8,FALSE,FALSE,FALSE,FALSE,FALSE,TRUE,,TRUE,Card Too Slow,,,1024,1024,1024,1024,0,FALSE,FALSE,FALSE,FALSE,FALSE,0,FALSE,FALSE,FALSE,FALSE,44,,,,15.07,FALSE,3.771,3.771,3.771,3.757,0.032,FALSE,FALSE,,,,,0,0,1,15,10,12075.5,3096.28,,Idle,0,25,FALSE,10,TRUE,,Go Home,39.89196354,-105.2622224,1,6144.8,393.7,TRUE,1,1,FALSE,FALSE,FALSE,FALSE,0,TRUE,FALSE,FALSE,Course Lock,98.4,,16.4,Calm,6,Android, 4.8.0,dronefo...-Mavic 2 Enterprise,276DFAP001K3FQ,0K8HFA801103AV,0VECFAN0072UWQ,161AFA863601YF,174.1,5888.6,115.2,45.8,9.4,0,174,dronefo...-Mavic 2 Enterprise,276DFAP001K3FQ,0K8HFA801103AV,0VECFAN0072UWQ,161AFA863601YF,,Android, 4.8.0,,,,,Switched to S (Sport)-mode.,
51,11/20/2018,19:44.0,2m 26.6s,146.6,39.89196289,-105.2622188,19.7,19.7,19.7,6422,0,1.5,0,0.7,0,0.2,0.2,0.2,-2.6,-1.8,-38.2,321.8,Sport,Other,,14,5,TRUE,,Mavic 2 Enterprise,TRUE,FALSE,,Smart,RC,FALSE,TRUE,FALSE,,,TRUE,,FALSE,FALSE,FALSE,FALSE,FALSE,FALSE,FALSE,FALSE,FALSE,FALSE,0,Follow Yaw,0,0,-31.2,328.8,FALSE,FALSE,FALSE,FALSE,FALSE,TRUE,,TRUE,Card Too Slow,,,1024,1024,1024,1024,0,FALSE,FALSE,FALSE,FALSE,FALSE,0,FALSE,FALSE,FALSE,FALSE,44,,,,15.073,FALSE,3.771,3.771,3.771,3.757,0.032,FALSE,FALSE,,,,,0,0,2,15,10,16845.9,4319.46,,Idle,0,25,FALSE,10,TRUE,,Go Home,39.89196354,-105.2622224,1.1,6144.8,393.7,TRUE,1,1,FALSE,FALSE,FALSE,FALSE,0,TRUE,FALSE,FALSE,Course Lock,98.4,,16.4,Calm,6,Android, 4.8.0,dronefo...-Mavic 2 Enterprise,276DFAP001K3FQ,0K8HFA801103AV,0VECFAN0072UWQ,161AFA863601YF,174.1,5888.6,115.2,45.8,9.4,0,174,dronefo...-Mavic 2 Enterprise,276DFAP001K3FQ,0K8HFA801103AV,0VECFAN0072UWQ,161AFA863601YF,,Android, 4.8.0,,,,,,
52,11/20/2018,19:44.1,2m 26.7s,146.7,39.89196283,-105.2622188,19.7,19.7,19.7,6422,0,1.5,0,0.7,0,0.2,0.2,0.2,-2.5,-1.8,-38.2,321.8,Sport,Other,,14,5,TRUE,,Mavic 2 Enterprise,TRUE,FALSE,,Smart,RC,FALSE,TRUE,FALSE,,,TRUE,,FALSE,FALSE,FALSE,FALSE,FALSE,FALSE,FALSE,FALSE,FALSE,FALSE,0,Follow Yaw,0,0,-31.2,328.8,FALSE,FALSE,FALSE,FALSE,FALSE,TRUE,,TRUE,Card Too Slow,,,1024,1024,1084,1024,0,FALSE,FALSE,FALSE,FALSE,FALSE,0,FALSE,FALSE,FALSE,FALSE,44,,,,15.073,FALSE,3.771,3.771,3.771,3.757,0.032,FALSE,FALSE,,,,,0,0,2,15,10,16845.9,4319.46,,Idle,0,25,FALSE,10,TRUE,,Go Home,39.89196354,-105.2622224,1,6144.8,393.7,TRUE,1,1,FALSE,FALSE,FALSE,FALSE,0,TRUE,FALSE,FALSE,Course Lock,98.4,,16.4,Calm,6,Android, 4.8.0,dronefo...-Mavic 2 Enterprise,276DFAP001K3FQ,0K8HFA801103AV,0VECFAN0072UWQ,161AFA863601YF,174.1,5888.6,115.2,45.8,9.4,0,174,dronefo...-Mavic 2 Enterprise,276DFAP001K3FQ,0K8HFA801103AV,0VECFAN0072UWQ,161AFA863601YF,,Android, 4.8.0,,,,,,
53,11/20/2018,19:44.2,2m 26.8s,146.8,39.89196268,-105.2622191,19.7,19.7,19.7,6422,0,1.5,0,0.7,0,0.2,0.2,0.2,-2.4,-1.9,-38.2,321.8,Sport,Other,,14,5,TRUE,,Mavic 2 Enterprise,TRUE,FALSE,,Smart,RC,FALSE,TRUE,FALSE,,,TRUE,,FALSE,FALSE,FALSE,FALSE,FALSE,FALSE,FALSE,FALSE,FALSE,FALSE,0,Follow Yaw,0,0,-31.2,328.8,FALSE,FALSE,FALSE,FALSE,FALSE,TRUE,,TRUE,Card Too Slow,,,1024,1024,1680,1024,0,FALSE,FALSE,FALSE,FALSE,FALSE,0,FALSE,FALSE,FALSE,FALSE,44,,,,15.073,FALSE,3.771,3.771,3.771,3.757,0.032,FALSE,FALSE,,,,,0,0,2,15,10,16845.9,4319.46,,Idle,0,25,FALSE,10,TRUE,,Go Home,39.89196354,-105.2622224,1,6144.8,393.7,TRUE,1,1,FALSE,FALSE,FALSE,FALSE,0,TRUE,FALSE,FALSE,Course Lock,98.4,,16.4,Calm,6,Android, 4.8.0,dronefo...-Mavic 2 Enterprise,276DFAP001K3FQ,0K8HFA801103AV,0VECFAN0072UWQ,161AFA863601YF,174.1,5888.6,115.2,45.8,9.4,0,174,dronefo...-Mavic 2 Enterprise,276DFAP001K3FQ,0K8HFA801103AV,0VECFAN0072UWQ,161AFA863601YF,,Android, 4.8.0,,,,,,
54,11/20/2018,19:44.3,2m 26.9s,146.9,39.89196265,-105.2622191,19.4,19.7,19.7,6421,0,1.5,0,0.7,0,0.2,0,0.2,-2.3,-1.7,-38.2,321.8,Sport,Other,,14,5,TRUE,,Mavic 2 Enterprise,TRUE,FALSE,,Smart,RC,FALSE,TRUE,FALSE,,,TRUE,,FALSE,FALSE,FALSE,FALSE,FALSE,FALSE,FALSE,FALSE,FALSE,FALSE,0,Follow Yaw,0,0,-31.1,328.9,FALSE,FALSE,FALSE,FALSE,FALSE,TRUE,,TRUE,Card Too Slow,,,1024,1024,1684,1184,0,FALSE,FALSE,FALSE,FALSE,FALSE,0,FALSE,FALSE,FALSE,FALSE,44,,,,15.073,FALSE,3.771,3.771,3.771,3.757,0.032,FALSE,FALSE,,,,,0,0,2,15,10,16845.9,4319.46,,Idle,0,25,FALSE,10,TRUE,,Go Home,39.89196354,-105.2622224,1,6144.8,393.7,TRUE,1,1,FALSE,FALSE,FALSE,FALSE,0,TRUE,FALSE,FALSE,Course Lock,98.4,,16.4,Calm,6,Android, 4.8.0,dronefo...-Mavic 2 Enterprise,276DFAP001K3FQ,0K8HFA801103AV,0VECFAN0072UWQ,161AFA863601YF,174.1,5888.6,115.2,45.8,9.4,0,174,dronefo...-Mavic 2 Enterprise,276DFAP001K3FQ,0K8HFA801103AV,0VECFAN0072UWQ,161AFA863601YF,,Android, 4.8.0,,,,,,
55,11/20/2018,19:44.4,2m 27.0s,147,39.8919626,-105.2622193,19.4,19.7,19.7,6421,0,1.5,0,0.7,0,0.2,-0.5,0.2,-1.8,-1.3,-37.8,322.2,Sport,Other,,14,5,TRUE,,Mavic 2 Enterprise,TRUE,FALSE,,Smart,RC,FALSE,TRUE,FALSE,,,TRUE,,FALSE,FALSE,FALSE,FALSE,FALSE,FALSE,FALSE,FALSE,FALSE,FALSE,0,Follow Yaw,0,0,-28.7,331.3,FALSE,FALSE,FALSE,FALSE,FALSE,TRUE,,TRUE,Card Too Slow,,,1024,1024,1684,1411,0,FALSE,FALSE,FALSE,FALSE,FALSE,0,FALSE,FALSE,FALSE,FALSE,44,,,,15.073,FALSE,3.771,3.771,3.771,3.757,0.032,FALSE,FALSE,,,,,0,0,2,15,10,16845.9,4319.46,,Idle,0,25,FALSE,10,TRUE,,Go Home,39.89196354,-105.2622224,0.9,6144.8,393.7,TRUE,1,1,FALSE,FALSE,FALSE,FALSE,0,TRUE,FALSE,FALSE,Course Lock,98.4,,16.4,Calm,6,Android, 4.8.0,dronefo...-Mavic 2 Enterprise,276DFAP001K3FQ,0K8HFA801103AV,0VECFAN0072UWQ,161AFA863601YF,174.1,5888.6,115.2,45.8,9.4,0,174,dronefo...-Mavic 2 Enterprise,276DFAP001K3FQ,0K8HFA801103AV,0VECFAN0072UWQ,161AFA863601YF,,Android, 4.8.0,,,,,,
56,11/20/2018,19:44.5,2m 27.1s,147.1,39.89196262,-105.2622194,19.7,19.7,19.7,6422,0,1.5,0,0.7,0,0.2,-1.6,0.2,-1.2,-1.6,-34.8,325.2,Sport,Other,,14,5,TRUE,,Mavic 2 Enterprise,TRUE,FALSE,,Smart,RC,FALSE,TRUE,FALSE,,,TRUE,,FALSE,FALSE,FALSE,FALSE,FALSE,FALSE,FALSE,FALSE,FALSE,FALSE,0,Follow Yaw,0,0,-21.7,338.3,FALSE,FALSE,FALSE,FALSE,FALSE,TRUE,,TRUE,Card Too Slow,,,1024,1024,1684,1512,0,FALSE,FALSE,FALSE,FALSE,FALSE,0,FALSE,FALSE,FALSE,FALSE,44,,,,15.073,FALSE,3.771,3.771,3.771,3.757,0.032,FALSE,FALSE,,,,,0,0,2,15,10,16845.9,4319.46,,Idle,0,25,FALSE,10,TRUE,,Go Home,39.89196354,-105.2622224,0.9,6144.8,393.7,TRUE,1,1,FALSE,FALSE,FALSE,FALSE,0,TRUE,FALSE,FALSE,Course Lock,98.4,,16.4,Calm,6,Android, 4.8.0,dronefo...-Mavic 2 Enterprise,276DFAP001K3FQ,0K8HFA801103AV,0VECFAN0072UWQ,161AFA863601YF,174.1,5888.6,115.2,45.8,9.4,0,174,dronefo...-Mavic 2 Enterprise,276DFAP001K3FQ,0K8HFA801103AV,0VECFAN0072UWQ,161AFA863601YF,,Android, 4.8.0,,,,,,
57,11/20/2018,19:44.6,2m 27.2s,147.2,39.89196263,-105.2622196,19.7,19.7,20,6422,0,1.5,0,0.7,0,0.2,-2.9,0.2,-0.6,-1.8,-27.7,332.3,Sport,Other,,14,5,TRUE,,Mavic 2 Enterprise,TRUE,FALSE,,Smart,RC,FALSE,TRUE,FALSE,,,TRUE,,FALSE,FALSE,FALSE,FALSE,FALSE,FALSE,FALSE,FALSE,FALSE,FALSE,0,Follow Yaw,0,0,-11.5,348.5,FALSE,FALSE,FALSE,FALSE,FALSE,TRUE,,TRUE,Card Too Slow,,,1024,1096,1684,1572,0,FALSE,FALSE,FALSE,FALSE,FALSE,0,FALSE,FALSE,FALSE,FALSE,44,,,,15.134,FALSE,3.79,3.789,3.785,3.77,0.032,FALSE,FALSE,,,,,0,0,2,15,10,16845.9,4319.46,,Idle,0,25,FALSE,10,TRUE,,Go Home,39.89196354,-105.2622224,0.8,6144.8,393.7,TRUE,1,1,FALSE,FALSE,FALSE,FALSE,0,TRUE,FALSE,FALSE,Course Lock,98.4,,16.4,Calm,6,Android, 4.8.0,dronefo...-Mavic 2 Enterprise,276DFAP001K3FQ,0K8HFA801103AV,0VECFAN0072UWQ,161AFA863601YF,174.1,5888.6,115.2,45.8,9.4,0,174,dronefo...-Mavic 2 Enterprise,276DFAP001K3FQ,0K8HFA801103AV,0VECFAN0072UWQ,161AFA863601YF,,Android, 4.8.0,,,,,,
58,11/20/2018,19:44.7,2m 27.3s,147.3,39.89196267,-105.2622197,20.3,20.3,20.7,6422,0,1.5,0,0.7,0,0.2,-4.3,0.2,-0.3,-1.4,-17.8,342.2,Sport,Other,,14,5,TRUE,,Mavic 2 Enterprise,TRUE,FALSE,,Smart,RC,FALSE,TRUE,FALSE,,,TRUE,,FALSE,FALSE,FALSE,FALSE,FALSE,FALSE,FALSE,FALSE,FALSE,FALSE,0,Follow Yaw,0,0,0.4,0.4,FALSE,FALSE,FALSE,FALSE,FALSE,TRUE,,TRUE,Card Too Slow,,,1024,1672,1684,1583,0,FALSE,FALSE,FALSE,FALSE,FALSE,0,FALSE,FALSE,FALSE,FALSE,44,,,,15.134,FALSE,3.79,3.789,3.785,3.77,0.032,FALSE,FALSE,,,,,0,0,2,15,10,16845.9,4319.46,,Idle,0,25,FALSE,10,TRUE,,Go Home,39.89196354,-105.2622224,0.8,6144.8,393.7,TRUE,1,1,FALSE,FALSE,FALSE,FALSE,0,TRUE,FALSE,FALSE,Course Lock,98.4,,16.4,Calm,6,Android, 4.8.0,dronefo...-Mavic 2 Enterprise,276DFAP001K3FQ,0K8HFA801103AV,0VECFAN0072UWQ,161AFA863601YF,174.1,5888.6,115.2,45.8,9.4,0,174,dronefo...-Mavic 2 Enterprise,276DFAP001K3FQ,0K8HFA801103AV,0VECFAN0072UWQ,161AFA863601YF,,Android, 4.8.0,,,,,,
59,11/20/2018,19:44.8,2m 27.4s,147.4,39.8919627,-105.2622198,21,21,21.7,6423,0,1.5,0.2,0.7,0,0.2,-5.6,0.2,-9.6,-2.3,-6.2,353.8,Sport,Other,,14,5,TRUE,,Mavic 2 Enterprise,TRUE,FALSE,,Smart,RC,FALSE,TRUE,FALSE,,,TRUE,,FALSE,FALSE,FALSE,FALSE,FALSE,FALSE,FALSE,FALSE,FALSE,FALSE,0,Follow Yaw,0.1,0,11.7,11.7,FALSE,FALSE,FALSE,FALSE,FALSE,TRUE,,TRUE,Card Too Slow,,,1024,1684,1684,1409,0,FALSE,FALSE,FALSE,FALSE,FALSE,0,FALSE,FALSE,FALSE,FALSE,44,,,,15.134,FALSE,3.79,3.789,3.785,3.77,0.032,FALSE,FALSE,,,,,0,0,2,15,10,16845.9,4319.46,,Idle,0,25,FALSE,10,TRUE,,Go Home,39.89196354,-105.2622224,0.7,6144.8,393.7,TRUE,1,1,FALSE,FALSE,FALSE,FALSE,0,TRUE,FALSE,FALSE,Course Lock,98.4,,16.4,Calm,6,Android, 4.8.0,dronefo...-Mavic 2 Enterprise,276DFAP001K3FQ,0K8HFA801103AV,0VECFAN0072UWQ,161AFA863601YF,174.1,5888.6,115.2,45.8,9.4,0,174,dronefo...-Mavic 2 Enterprise,276DFAP001K3FQ,0K8HFA801103AV,0VECFAN0072UWQ,161AFA863601YF,,Android, 4.8.0,,,,,,
