#,CUSTOM.date [local], CUSTOM.updateTime [local], OSD.flyTime, OSD.flyTime [s], OSD.latitude, OSD.longitude, OSD.height [ft], OSD.heightMax [ft], OSD.vpsHeight [ft], OSD.altitude [ft], OSD.hSpeed [MPH], OSD.hSpeedMax [MPH], OSD.xSpeed [MPH], OSD.xSpeedMax [MPH], OSD.ySpeed [MPH], OSD.ySpeedMax [MPH], OSD.zSpeed [MPH], OSD.zSpeedMax [MPH], OSD.pitch, OSD.roll, OSD.yaw, OSD.yaw [360], OSD.flycState, OSD.flycCommand, OSD.flightAction, OSD.gpsNum, OSD.gpsLevel, OSD.isGPSUsed, OSD.nonGPSCause, OSD.droneType, OSD.isSwaveWork, OSD.waveError, OSD.goHomeStatus, OSD.batteryType, OSD.ctrlDevice, OSD.isOnGround, OSD.isMotorOn, OSD.isMotorBlocked, OSD.motorStartFailedCause, OSD.motorFailReason, OSD.isImuPreheated, OSD.imuInitFailReason, OSD.isAcceletorOverRange, OSD.isBarometerDeadInAir, OSD.isCompassError, OSD.isGoHomeHeightModified, OSD.canIOCWork, OSD.isNotEnoughForce, OSD.isOutOfLimit, OSD.isPropellerCatapult, OSD.isVibrating, OSD.isVisionUsed, OSD.voltageWarning, GIMBAL.mode, GIMBAL.pitch, GIMBAL.roll, GIMBAL.yaw, GIMBAL.yaw [360], GIMBAL.isPitchAtLimit, GIMBAL.isRollAtLimit, GIMBAL.isYawAtLimit, GIMBAL.isStuck, CAMERA.isPhoto, CAMERA.isVideo, CAMERA.filename, CAMERA.sdCardIsInserted, CAMERA.sdCardState, RC.downlinkSignal, RC.uplinkSignal, RC.aileron, RC.elevator, RC.throttle, RC.rudder, RC.mode, RC.goHomeDepressed, RC.recordDepressed, RC.shutterDepressed, RC.playbackDepressed, RC.wheelDepressed, RC.wheelOffset, RC.custom1Depressed, RC.custom2Depressed, RC.custom3Depressed, RC.custom4Depressed, BATTERY.chargeLevel, BATTERY.currentPV [V], BATTERY.currentCapacity [mAh], BATTERY.fullCapacity [mAh], BATTERY.voltage [V], BATTERY.isCellVoltageEstimated, BATTERY.cellVoltage1 [V], BATTERY.cellVoltage2 [V], BATTERY.cellVoltage3 [V], BATTERY.cellVoltage4 [V], BATTERY.maxCellVoltageDeviation, BATTERY.isCellVoltageDeviationHigh, BATTERY.isVoltageLow, BATTERY.current [A], BATTERY.temperature [F], BATTERY.minTemperature [F], BATTERY.maxTemperature [F], BATTERY.usefulTime [s], BATTERY.goHomeTime [s], BATTERY.landTime [s], BATTERY.goHomeBattery, BATTERY.landBattery, BATTERY.safeFlyRadius, BATTERY.volumeConsume, BATTERY.status, BATTERY.goHomeStatus, BATTERY.goHomeCountdown, BATTERY.lowWarning, BATTERY.lowWarningGoHome, BATTERY.seriousLowWarning, BATTERY.seriousLowWarningLanding, BATTERY.timesCharged, MC.failSafeAction, HOME.latitude, HOME.longitude, HOME.distance [ft], HOME.height [ft], HOME.heightLimit [ft], HOME.isHomeRecord, HOME.goHomeMode, HOME.aircraftHeadDirection, HOME.isDynamicHomePointEnabled, HOME.isReachedLimitDistance, HOME.isReachedLimitHeight, HOME.isCompassCeleing, HOME.compassCeleStatus, HOME.isMultipleFlightModeEnabled, HOME.isBeginnerMode, HOME.isIOCEnabled, HOME.iocMode, HOME.goHomeHeight [ft], HOME.courseLockAngle, HOME.forceLandingHeight [ft], HOME.wind, HOME.dataRecorderFileIndex, RECOVER.appType, RECOVER.appVersion, RECOVER.aircraftName, RECOVER.aircraftSerial, RECOVER.cameraSerial, RECOVER.rcSerial, RECOVER.batterySerial, DETAILS.totalTime [s], DETAILS.totalDistance [ft], DETAILS.maxHeight [ft], DETAILS.maxHorizontalSpeed [MPH], DETAILS.maxVerticalSpeed [MPH], DETAILS.photoNum, DETAILS.videoTime [s], DETAILS.aircraftName, DETAILS.aircraftSerial, DETAILS.cameraSerial, DETAILS.rcSerial, DETAILS.batterySerial, DETAILS.appName, DETAILS.appType, DETAILS.appVersion, APPGPS.latitude, APPGPS.longitude, APPGPS.accuracy, APP.message, APP.tip, APP.warning
1,11/20/2018,57:52.4,0m 0.0s,0,39.89194667,-105.2622247,0,0,0.3,6402,0,0,0,0,0,0,0,0,6,3.6,-51.4,308.6,Starting Motors,Other,Takeoff (RC Assisted),16,5,TRUE,,Mavic 2 Enterprise,TRUE,FALSE,,Smart,RC,TRUE,TRUE,FALSE,,,TRUE,,FALSE,FALSE,FALSE,FALSE,FALSE,FALSE,FALSE,FALSE,FALSE,FALSE,0,Follow Yaw,0,0,-51.7,308.3,FALSE,FALSE,FALSE,FALSE,FALSE,TRUE,,TRUE,Card Too Slow,,,1024,1024,1024,1024,0,FALSE,FALSE,FALSE,FALSE,FALSE,0,FALSE,FALSE,FALSE,FALSE,,,,,16.713,FALSE,4.176,4.182,4.18,4.175,0.007,FALSE,FALSE,,,,,,,,,,,,,Idle,,,TRUE,,FALSE,,Go Home,,,,,,FALSE,,,FALSE,FALSE,FALSE,FALSE,0,FALSE,FALSE,FALSE,,,,,Calm,,Android, 4.8.0,dronefo...-Mavic 2 Enterprise,276DFAP001US71,0K8HF9H01103JN,,161AFA863601QP,223.9,6830.5,83.3,46.5,9.2,0,224,dronefo...-Mavic 2 Enterprise,276DFAP001US71,0K8HF9H01103JN,,161AFA863601QP,,Android, 4.8.0,,,,,,GEO: You are in a Warning Zone (School). Fly with caution.
2,11/20/2018,57:52.5,0m 0.1s,0.1,39.89194667,-105.2622247,0,0,0.3,6402,0,0,0,0,0,0,0,0,6,3.6,-51.4,308.6,Starting Motors,Other,Takeoff (RC Assisted),16,5,TRUE,,Mavic 2 Enterprise,TRUE,FALSE,,Smart,RC,TRUE,TRUE,FALSE,,,TRUE,,FALSE,FALSE,FALSE,FALSE,FALSE,FALSE,FALSE,FALSE,FALSE,FALSE,0,Follow Yaw,0,0,-51.7,308.3,FALSE,FALSE,FALSE,FALSE,FALSE,TRUE,,TRUE,Card Too Slow,,,1024,1024,1024,1024,0,FALSE,FALSE,FALSE,FALSE,FALSE,0,FALSE,FALSE,FALSE,FALSE,,,,,16.713,FALSE,4.176,4.182,4.18,4.175,0.007,FALSE,FALSE,,,,,,,,,,,,,Idle,,,TRUE,,FALSE,,Go Home,,,,,,FALSE,,,FALSE,FALSE,FALSE,FALSE,0,FALSE,FALSE,FALSE,,,,,Calm,,Android, 4.8.0,dronefo...-Mavic 2 Enterprise,276DFAP001US71,0K8HF9H01103JN,,161AFA863601QP,223.9,6830.5,83.3,46.5,9.2,0,224,dronefo...-Mavic 2 Enterprise,276DFAP001US71,0K8HF9H01103JN,,161AFA863601QP,,Android, 4.8.0,,,,,,
3,11/20/2018,57:52.6,0m 0.2s,0.2,39.89194668,-105.2622247,0,0,0.3,6402,0,0,0,0,0,0,0,0,6,3.6,-51.3,308.7,Starting Motors,Other,Takeoff (RC Assisted),16,5,TRUE,,Mavic 2 Enterprise,TRUE,FALSE,,Smart,RC,TRUE,TRUE,FALSE,,,TRUE,,FALSE,FALSE,FALSE,FALSE,FALSE,FALSE,FALSE,FALSE,FALSE,FALSE,0,Follow Yaw,0,0,-51.7,308.3,FALSE,FALSE,FALSE,FALSE,FALSE,TRUE,,TRUE,Card Too Slow,,,1024,1024,1024,1024,0,FALSE,FALSE,FALSE,FALSE,FALSE,0,FALSE,FALSE,FALSE,FALSE,,,,,16.713,FALSE,4.176,4.182,4.18,4.175,0.007,FALSE,FALSE,,,,,,,,,,,,,Idle,,,TRUE,,FALSE,,Go Home,,,,,,FALSE,,,FALSE,FALSE,FALSE,FALSE,0,FALSE,FALSE,FALSE,,,,,Calm,,Android, 4.8.0,dronefo...-Mavic 2 Enterprise,276DFAP001US71,0K8HF9H01103JN,,161AFA863601QP,223.9,6830.5,83.3,46.5,9.2,0,224,dronefo...-Mavic 2 Enterprise,276DFAP001US71,0K8HF9H01103JN,,161AFA863601QP,,Android, 4.8.0,,,,,,
4,11/20/2018,57:52.7,0m 0.3s,0.3,39.89194667,-105.2622247,0,0,0.3,6402,0,0,0,0,0,0,0,0,6,3.6,-51.3,308.7,Starting Motors,Other,Takeoff (RC Assisted),16,5,TRUE,,Mavic 2 Enterprise,TRUE,FALSE,,Smart,RC,TRUE,TRUE,FALSE,,,TRUE,,FALSE,FALSE,FALSE,FALSE,FALSE,FALSE,FALSE,FALSE,FALSE,FALSE,0,Follow Yaw,0,0,-51.7,308.3,FALSE,FALSE,FALSE,FALSE,FALSE,TRUE,,TRUE,Card Too Slow,,,1287,761,364,450,0,FALSE,FALSE,FALSE,FALSE,FALSE,0,FALSE,FALSE,FALSE,FALSE,,,,,16.713,FALSE,4.176,4.182,4.18,4.175,0.007,FALSE,FALSE,,,,,,,,,,,,,Idle,,,TRUE,,FALSE,,Go Home,,,,,,FALSE,,,FALSE,FALSE,FALSE,FALSE,0,FALSE,FALSE,FALSE,,,,,Calm,,Android, 4.8.0,dronefo...-Mavic 2 Enterprise,276DFAP001US71,0K8HF9H01103JN,,161AFA863601QP,223.9,6830.5,83.3,46.5,9.2,0,224,dronefo...-Mavic 2 Enterprise,276DFAP001US71,0K8HF9H01103JN,,161AFA863601QP,,Android, 4.8.0,,,,,,
5,11/20/2018,57:52.8,0m 0.4s,0.4,39.89194668,-105.2622247,0,0,0.3,6402,0,0,0,0,0,0,0,0,6,3.6,-51.3,308.7,Starting Motors,Other,Takeoff (RC Assisted),16,5,TRUE,,Mavic 2 Enterprise,TRUE,FALSE,,Smart,RC,TRUE,TRUE,FALSE,,,TRUE,,FALSE,FALSE,FALSE,FALSE,FALSE,FALSE,FALSE,FALSE,FALSE,FALSE,0,Follow Yaw,0,0,-51.7,308.3,FALSE,FALSE,FALSE,FALSE,FALSE,TRUE,,TRUE,Card Too Slow,,,1024,1024,1024,1024,0,FALSE,FALSE,FALSE,FALSE,FALSE,0,FALSE,FALSE,FALSE,FALSE,,,,,16.713,FALSE,4.176,4.182,4.18,4.175,0.007,FALSE,FALSE,,,,,,,,,,,,,Idle,,,TRUE,,FALSE,,Go Home,,,,,,FALSE,,,FALSE,FALSE,FALSE,FALSE,0,FALSE,FALSE,FALSE,,,,,Calm,,Android, 4.8.0,dronefo...-Mavic 2 Enterprise,276DFAP001US71,0K8HF9H01103JN,,161AFA863601QP,223.9,6830.5,83.3,46.5,9.2,0,224,dronefo...-Mavic 2 Enterprise,276DFAP001US71,0K8HF9H01103JN,,161AFA863601QP,,Android, 4.8.0,,,,,,
6,11/20/2018,57:52.9,0m 0.5s,0.5,39.89194667,-105.2622247,0,0,0.3,6402,0,0,0,0,0,0,0,0,6,3.6,-51.3,308.7,Starting Motors,Other,Takeoff (RC Assisted),16,5,TRUE,,Mavic 2 Enterprise,TRUE,FALSE,,Smart,RC,TRUE,TRUE,FALSE,,,TRUE,,FALSE,FALSE,FALSE,FALSE,FALSE,FALSE,FALSE,FALSE,FALSE,FALSE,0,Follow Yaw,0,0,-51.7,308.3,FALSE,FALSE,FALSE,FALSE,FALSE,TRUE,,TRUE,Card Too Slow,,,1024,1024,1024,1024,0,FALSE,FALSE,FALSE,FALSE,FALSE,0,FALSE,FALSE,FALSE,FALSE,,,,,16.713,FALSE,4.176,4.182,4.18,4.175,0.007,FALSE,FALSE,,,,,,,,,,,,,Idle,,,TRUE,,FALSE,,Go Home,,,,,,FALSE,,,FALSE,FALSE,FALSE,FALSE,0,FALSE,FALSE,FALSE,,,,,Calm,,Android, 4.8.0,dronefo...-Mavic 2 Enterprise,276DFAP001US71,0K8HF9H01103JN,,161AFA863601QP,223.9,6830.5,83.3,46.5,9.2,0,224,dronefo...-Mavic 2 Enterprise,276DFAP001US71,0K8HF9H01103JN,,161AFA863601QP,,Android, 4.8.0,,,,,,
7,11/20/2018,57:53.0,0m 0.6s,0.6,39.89194668,-105.2622247,0,0,0.3,6402,0,0,0,0,0,0,0,0,6,3.6,-51.3,308.7,Starting Motors,Other,Takeoff (RC Assisted),16,5,TRUE,,Mavic 2 Enterprise,TRUE,FALSE,,Smart,RC,TRUE,TRUE,FALSE,,,TRUE,,FALSE,FALSE,FALSE,FALSE,FALSE,FALSE,FALSE,FALSE,FALSE,FALSE,0,Follow Yaw,0,0,-51.7,308.3,FALSE,FALSE,FALSE,FALSE,FALSE,TRUE,,TRUE,Card Too Slow,,,1024,1024,1024,1024,0,FALSE,FALSE,FALSE,FALSE,FALSE,0,FALSE,FALSE,FALSE,FALSE,85,,,,16.701,FALSE,4.176,4.182,4.18,4.175,0.007,FALSE,FALSE,,,,,0,0,0,15,10,5442.7,1395.57,,Idle,0,25,FALSE,10,TRUE,,Go Home,39.89194733,-105.2622261,0.6,6133.7,393.7,TRUE,1,1,FALSE,FALSE,FALSE,FALSE,0,TRUE,FALSE,FALSE,Course Lock,98.4,,16.4,Calm,9,Android, 4.8.0,dronefo...-Mavic 2 Enterprise,276DFAP001US71,0K8HF9H01103JN,,161AFA863601QP,223.9,6830.5,83.3,46.5,9.2,0,224,dronefo...-Mavic 2 Enterprise,276DFAP001US71,0K8HF9H01103JN,,161AFA863601QP,,Android, 4.8.0,,,,Data Recorder File Index is 9.,,
8,11/20/2018,57:53.1,0m 0.7s,0.7,39.89194667,-105.2622247,0,0,0.3,6402,0,0,0,0,0,0,0,0,6,3.6,-51.3,308.7,Starting Motors,Other,Takeoff (RC Assisted),16,5,TRUE,,Mavic 2 Enterprise,TRUE,FALSE,,Smart,RC,TRUE,TRUE,FALSE,,,TRUE,,FALSE,FALSE,FALSE,FALSE,FALSE,FALSE,FALSE,FALSE,FALSE,FALSE,0,Follow Yaw,0,0,-51.7,308.3,FALSE,FALSE,FALSE,FALSE,FALSE,TRUE,,TRUE,Card Too Slow,,,1024,1024,1024,1024,0,FALSE,FALSE,FALSE,FALSE,FALSE,0,FALSE,FALSE,FALSE,FALSE,85,,,,16.701,FALSE,4.176,4.182,4.18,4.175,0.007,FALSE,FALSE,,,,,0,0,0,15,10,5442.7,1395.57,,Idle,0,25,FALSE,10,TRUE,,Go Home,39.89194733,-105.2622261,0.6,6133.7,393.7,TRUE,1,1,FALSE,FALSE,FALSE,FALSE,0,TRUE,FALSE,FALSE,Course Lock,98.4,,16.4,Calm,9,Android, 4.8.0,dronefo...-Mavic 2 Enterprise,276DFAP001US71,0K8HF9H01103JN,,161AFA863601QP,223.9,6830.5,83.3,46.5,9.2,0,224,dronefo...-Mavic 2 Enterprise,276DFAP001US71,0K8HF9H01103JN,,161AFA863601QP,,Android, 4.8.0,,,,,,
9,11/20/2018,57:53.2,0m 0.8s,0.8,39.89194668,-105.2622247,0,0,0.3,6402,0,0,0,0,0,0,0,0,6,3.6,-51.3,308.7,Starting Motors,Other,Takeoff (RC Assisted),16,5,TRUE,,Mavic 2 Enterprise,TRUE,FALSE,,Smart,RC,TRUE,TRUE,FALSE,,,TRUE,,FALSE,FALSE,FALSE,FALSE,FALSE,FALSE,FALSE,FALSE,FALSE,FALSE,0,Follow Yaw,0,0,-51.7,308.3,FALSE,FALSE,FALSE,FALSE,FALSE,TRUE,,TRUE,Card Too Slow,,,1024,1024,1024,1024,0,FALSE,FALSE,FALSE,FALSE,FALSE,0,FALSE,FALSE,FALSE,FALSE,85,,,,16.701,FALSE,4.176,4.182,4.18,4.175,0.007,FALSE,FALSE,,,,,0,0,0,15,10,5442.7,1395.57,,Idle,0,25,FALSE,10,TRUE,,Go Home,39.89194733,-105.2622261,0.6,6133.7,393.7,TRUE,1,1,FALSE,FALSE,FALSE,FALSE,0,TRUE,FALSE,FALSE,Course Lock,98.4,,16.4,Calm,9,Android, 4.8.0,dronefo...-Mavic 2 Enterprise,276DFAP001US71,0K8HF9H01103JN,,161AFA863601QP,223.9,6830.5,83.3,46.5,9.2,0,224,dronefo...-Mavic 2 Enterprise,276DFAP001US71,0K8HF9H01103JN,,161AFA863601QP,,Android, 4.8.0,,,,,,
10,11/20/2018,57:53.3,0m 0.9s,0.9,39.89194667,-105.2622247,0,0,0.3,6402,0,0,0,0,0,0,0,0,6,3.6,-51.3,308.7,Starting Motors,Other,Takeoff (RC Assisted),16,5,TRUE,,Mavic 2 Enterprise,TRUE,FALSE,,Smart,RC,TRUE,TRUE,FALSE,,,TRUE,,FALSE,FALSE,FALSE,FALSE,FALSE,FALSE,FALSE,FALSE,FALSE,FALSE,0,Follow Yaw,0,0,-51.7,308.3,FALSE,FALSE,FALSE,FALSE,FALSE,TRUE,,TRUE,Card Too Slow,,,1024,1024,1024,1024,0,FALSE,FALSE,FALSE,FALSE,FALSE,0,FALSE,FALSE,FALSE,FALSE,85,,,,16.713,FALSE,4.176,4.182,4.18,4.175,0.007,FALSE,FALSE,,,,,0,0,0,15,10,5442.7,1395.57,,Idle,0,25,FALSE,10,TRUE,,Go Home,39.89194733,-105.2622261,0.6,6133.7,393.7,TRUE,1,1,FALSE,FALSE,FALSE,FALSE,0,TRUE,FALSE,FALSE,Course Lock,98.4,,16.4,Calm,9,Android, 4.8.0,dronefo...-Mavic 2 Enterprise,276DFAP001US71,0K8HF9H01103JN,,161AFA863601QP,223.9,6830.5,83.3,46.5,9.2,0,224,dronefo...-Mavic 2 Enterprise,276DFAP001US71,0K8HF9H01103JN,,161AFA863601QP,,Android, 4.8.0,,,,,,
11,11/20/2018,57:53.4,0m 1.0s,1,39.89194667,-105.2622247,0,0,0.3,6402,0,0,0,0,0,0,0,0,6,3.6,-51.3,308.7,Starting Motors,Other,Takeoff (RC Assisted),16,5,TRUE,,Mavic 2 Enterprise,TRUE,FALSE,,Smart,RC,TRUE,TRUE,FALSE,,,TRUE,,FALSE,FALSE,FALSE,FALSE,FALSE,FALSE,FALSE,FALSE,FALSE,FALSE,0,Follow Yaw,0,0,-51.7,308.3,FALSE,FALSE,FALSE,FALSE,FALSE,TRUE,,TRUE,Card Too Slow,,,1024,1024,1024,1024,0,FALSE,FALSE,FALSE,FALSE,FALSE,0,FALSE,FALSE,FALSE,FALSE,85,,,,16.713,FALSE,4.176,4.182,4.18,4.175,0.007,FALSE,FALSE,,,,,0,0,0,15,10,5442.7,1395.57,,Idle,0,25,FALSE,10,TRUE,,Go Home,39.89194733,-105.2622261,0.6,6133.7,393.7,TRUE,1,1,FALSE,FALSE,FALSE,FALSE,0,TRUE,FALSE,FALSE,Course Lock,98.4,,16.4,Calm,9,Android, 4.8.0,dronefo...-Mavic 2 Enterprise,276DFAP001US71,0K8HF9H01103JN,,161AFA863601QP,223.9,6830.5,83.3,46.5,9.2,0,224,dronefo...-Mavic 2 Enterprise,276DFAP001US71,0K8HF9H01103JN,,161AFA863601QP,,Android, 4.8.0,,,,,,
12,11/20/2018,57:53.5,0m 1.1s,1.1,39.89194667,-105.2622247,0,0,0.3,6402,0,0,0,0,0,0,0,0,6,3.6,-51.3,308.7,Starting Motors,Other,Takeoff (RC Assisted),16,5,TRUE,,Mavic 2 Enterprise,TRUE,FALSE,,Smart,RC,TRUE,TRUE,FALSE,,,TRUE,,FALSE,FALSE,FALSE,FALSE,FALSE,FALSE,FALSE,FALSE,FALSE,FALSE,0,Follow Yaw,0,0,-51.7,308.3,FALSE,FALSE,FALSE,FALSE,FALSE,TRUE,,TRUE,Card Too Slow,,,1024,1024,1024,1024,0,FALSE,FALSE,FALSE,FALSE,FALSE,0,FALSE,FALSE,FALSE,FALSE,85,,,,16.713,FALSE,4.176,4.182,4.18,4.175,0.007,FALSE,FALSE,,,,,0,0,0,15,10,5442.7,1395.57,,Idle,0,25,FALSE,10,TRUE,,Go Home,39.89194733,-105.2622261,0.6,6133.7,393.7,TRUE,1,1,FALSE,FALSE,FALSE,FALSE,0,TRUE,FALSE,FALSE,Course Lock,98.4,,16.4,Calm,9,Android, 4.8.0,dronefo...-Mavic 2 Enterprise,276DFAP001US71,0K8HF9H01103JN,,161AFA863601QP,223.9,6830.5,83.3,46.5,9.2,0,224,dronefo...-Mavic 2 Enterprise,276DFAP001US71,0K8HF9H01103JN,,161AFA863601QP,,Android, 4.8.0,,,,,,
13,11/20/2018,57:53.6,0m 1.2s,1.2,39.89194667,-105.2622247,0,0,0.3,6402,0,0,0,0,0,0,0,0,6,3.6,-51.3,308.7,Manual Takeoff,Other,Takeoff (RC Assisted),16,5,TRUE,,Mavic 2 Enterprise,TRUE,FALSE,,Smart,RC,TRUE,TRUE,FALSE,,,TRUE,,FALSE,FALSE,FALSE,FALSE,FALSE,FALSE,FALSE,FALSE,FALSE,FALSE,0,Follow Yaw,0,0,-51.7,308.3,FALSE,FALSE,FALSE,FALSE,FALSE,TRUE,,TRUE,Card Too Slow,,,1024,1024,1024,1024,0,FALSE,FALSE,FALSE,FALSE,FALSE,0,FALSE,FALSE,FALSE,FALSE,85,,,,16.713,FALSE,4.176,4.182,4.18,4.175,0.007,FALSE,FALSE,,,,,0,0,0,15,10,5442.7,1395.57,,Idle,0,25,FALSE,10,TRUE,,Go Home,39.89194733,-105.2622261,0.6,6133.7,393.7,TRUE,1,1,FALSE,FALSE,FALSE,FALSE,0,TRUE,FALSE,FALSE,Course Lock,98.4,,16.4,Calm,9,Android, 4.8.0,dronefo...-Mavic 2 Enterprise,276DFAP001US71,0K8HF9H01103JN,,161AFA863601QP,223.9,6830.5,83.3,46.5,9.2,0,224,dronefo...-Mavic 2 Enterprise,276DFAP001US71,0K8HF9H01103JN,,161AFA863601QP,,Android, 4.8.0,,,,,,
14,11/20/2018,57:53.7,0m 1.3s,1.3,39.89194667,-105.2622247,0,0,0.3,6402,0,0,0,0,0,0,0,0,6,3.6,-51.4,308.6,Manual Takeoff,Other,Takeoff (RC Assisted),16,5,TRUE,,Mavic 2 Enterprise,TRUE,FALSE,,Smart,RC,TRUE,TRUE,FALSE,,,TRUE,,FALSE,FALSE,FALSE,FALSE,FALSE,FALSE,FALSE,FALSE,FALSE,FALSE,0,Follow Yaw,0,0,-51.7,308.3,FALSE,FALSE,FALSE,FALSE,FALSE,TRUE,,TRUE,Card Too Slow,,,1024,1024,1024,1024,0,FALSE,FALSE,FALSE,FALSE,FALSE,0,FALSE,FALSE,FALSE,FALSE,85,,,,16.713,FALSE,4.176,4.182,4.18,4.175,0.007,FALSE,FALSE,,,,,0,0,0,15,10,5442.7,1395.57,,Idle,0,25,FALSE,10,TRUE,,Go Home,39.89194733,-105.2622261,0.6,6133.7,393.7,TRUE,1,1,FALSE,FALSE,FALSE,FALSE,0,TRUE,FALSE,FALSE,Course Lock,98.4,,16.4,Calm,9,Android, 4.8.0,dronefo...-Mavic 2 Enterprise,276DFAP001US71,0K8HF9H01103JN,,161AFA863601QP,223.9,6830.5,83.3,46.5,9.2,0,224,dronefo...-Mavic 2 Enterprise,276DFAP001US71,0K8HF9H01103JN,,161AFA863601QP,,Android, 4.8.0,,,,,,
15,11/20/2018,57:53.8,0m 1.4s,1.4,39.89194667,-105.2622247,0,0,0.3,6402,0,0,0,0,0,0,0,0,6,3.6,-51.3,308.7,Manual Takeoff,Other,Takeoff (RC Assisted),16,5,TRUE,,Mavic 2 Enterprise,TRUE,FALSE,,Smart,RC,TRUE,TRUE,FALSE,,,TRUE,,FALSE,FALSE,FALSE,FALSE,FALSE,FALSE,FALSE,FALSE,FALSE,FALSE,0,Follow Yaw,0,0,-51.7,308.3,FALSE,FALSE,FALSE,FALSE,FALSE,TRUE,,TRUE,Card Too Slow,,,1024,1024,1024,1024,0,FALSE,FALSE,FALSE,FALSE,FALSE,0,FALSE,FALSE,FALSE,FALSE,85,,,,16.713,FALSE,4.176,4.182,4.18,4.175,0.007,FALSE,FALSE,,,,,0,0,0,15,10,5442.7,1395.57,,Idle,0,25,FALSE,10,TRUE,,Go Home,39.89194733,-105.2622261,0.6,6133.7,393.7,TRUE,1,1,FALSE,FALSE,FALSE,FALSE,0,TRUE,FALSE,FALSE,Course Lock,98.4,,16.4,Calm,9,Android, 4.8.0,dronefo...-Mavic 2 Enterprise,276DFAP001US71,0K8HF9H01103JN,,161AFA863601QP,223.9,6830.5,83.3,46.5,9.2,0,224,dronefo...-Mavic 2 Enterprise,276DFAP001US71,0K8HF9H01103JN,,161AFA863601QP,,Android, 4.8.0,,,,,,
16,11/20/2018,57:53.9,0m 1.5s,1.5,39.89194667,-105.2622247,0,0,0.3,6402,0,0,0,0,0,0,0,0,6,3.6,-51.3,308.7,Manual Takeoff,Other,Takeoff (RC Assisted),16,5,TRUE,,Mavic 2 Enterprise,TRUE,FALSE,,Smart,RC,TRUE,TRUE,FALSE,,,TRUE,,FALSE,FALSE,FALSE,FALSE,FALSE,FALSE,FALSE,FALSE,FALSE,FALSE,0,Follow Yaw,0,0,-51.7,308.3,FALSE,FALSE,FALSE,FALSE,FALSE,TRUE,,TRUE,Card Too Slow,,,1024,1024,1024,1024,0,FALSE,FALSE,FALSE,FALSE,FALSE,0,FALSE,FALSE,FALSE,FALSE,85,,,,16.713,FALSE,4.176,4.182,4.18,4.175,0.007,FALSE,FALSE,,,,,0,0,0,15,10,5442.7,1395.57,,Idle,0,25,FALSE,10,TRUE,,Go Home,39.89194733,-105.2622261,0.6,6133.7,393.7,TRUE,1,1,FALSE,FALSE,FALSE,FALSE,0,TRUE,FALSE,FALSE,Course Lock,98.4,,16.4,Calm,9,Android, 4.8.0,dronefo...-Mavic 2 Enterprise,276DFAP001US71,0K8HF9H01103JN,,161AFA863601QP,223.9,6830.5,83.3,46.5,9.2,0,224,dronefo...-Mavic 2 Enterprise,276DFAP001US71,0K8HF9H01103JN,,161AFA863601QP,,Android, 4.8.0,,,,,,
17,11/20/2018,57:54.0,0m 1.6s,1.6,39.89194667,-105.2622247,0,0,0.3,6402,0,0,0,0,0,0,0,0,6,3.6,-51.3,308.7,Manual Takeoff,Other,Takeoff (RC Assisted),16,5,TRUE,,Mavic 2 Enterprise,TRUE,FALSE,,Smart,RC,TRUE,TRUE,FALSE,,,TRUE,,FALSE,FALSE,FALSE,FALSE,FALSE,FALSE,FALSE,FALSE,FALSE,FALSE,0,Follow Yaw,0,0,-51.7,308.3,FALSE,FALSE,FALSE,FALSE,FALSE,TRUE,,TRUE,Card Too Slow,,,1024,1024,1024,1024,0,FALSE,FALSE,FALSE,FALSE,FALSE,0,FALSE,FALSE,FALSE,FALSE,85,,,,16.611,FALSE,4.176,4.182,4.18,4.175,0.007,FALSE,FALSE,,,,,0,0,0,15,10,5702.8,1462.26,,Idle,0,25,FALSE,10,TRUE,,Go Home,39.89194733,-105.2622261,0.6,6133.7,393.7,TRUE,1,1,FALSE,FALSE,FALSE,FALSE,0,TRUE,FALSE,FALSE,Course Lock,98.4,,16.4,Calm,9,Android, 4.8.0,dronefo...-Mavic 2 Enterprise,276DFAP001US71,0K8HF9H01103JN,,161AFA863601QP,223.9,6830.5,83.3,46.5,9.2,0,224,dronefo...-Mavic 2 Enterprise,276DFAP001US71,0K8HF9H01103JN,,161AFA863601QP,,Android, 4.8.0,,,,,,
18,11/20/2018,57:54.1,0m 1.7s,1.7,39.89194682,-105.2622247,0,0,0.3,6402,0,0,0,0,0,0,0,0,6,3.6,-51.4,308.6,Manual Takeoff,Other,Takeoff (RC Assisted),16,5,TRUE,,Mavic 2 Enterprise,TRUE,FALSE,,Smart,RC,TRUE,TRUE,FALSE,,,TRUE,,FALSE,FALSE,FALSE,FALSE,FALSE,FALSE,FALSE,FALSE,FALSE,FALSE,0,Follow Yaw,0,0,-51.7,308.3,FALSE,FALSE,FALSE,FALSE,FALSE,TRUE,,TRUE,Card Too Slow,,,1024,1024,1024,1024,0,FALSE,FALSE,FALSE,FALSE,FALSE,0,FALSE,FALSE,FALSE,FALSE,85,,,,16.611,FALSE,4.176,4.182,4.18,4.175,0.007,FALSE,FALSE,,,,,0,0,0,15,10,5702.8,1462.26,,Idle,0,25,FALSE,10,TRUE,,Go Home,39.89194733,-105.2622261,0.4,6133.7,393.7,TRUE,1,1,FALSE,FALSE,FALSE,FALSE,0,TRUE,FALSE,FALSE,Course Lock,98.4,,16.4,Calm,9,Android, 4.8.0,dronefo...-Mavic 2 Enterprise,276DFAP001US71,0K8HF9H01103JN,,161AFA863601QP,223.9,6830.5,83.3,46.5,9.2,0,224,dronefo...-Mavic 2 Enterprise,276DFAP001US71,0K8HF9H01103JN,,161AFA863601QP,,Android, 4.8.0,,,,,,
19,11/20/2018,57:54.2,0m 1.8s,1.8,39.89194683,-105.2622247,0,0,0.3,6402,0,0,0,0,0,0,0,0,6,3.6,-51.3,308.7,Manual Takeoff,Other,Takeoff (RC Assisted),16,5,TRUE,,Mavic 2 Enterprise,TRUE,FALSE,,Smart,RC,TRUE,TRUE,FALSE,,,TRUE,,FALSE,FALSE,FALSE,FALSE,FALSE,FALSE,FALSE,FALSE,FALSE,FALSE,0,Follow Yaw,0,0,-51.7,308.3,FALSE,FALSE,FALSE,FALSE,FALSE,TRUE,,TRUE,Card Too Slow,,,1024,1024,1045,1024,0,FALSE,FALSE,FALSE,FALSE,FALSE,0,FALSE,FALSE,FALSE,FALSE,85,,,,16.611,FALSE,4.176,4.182,4.18,4.175,0.007,FALSE,FALSE,,,,,0,0,0,15,10,5702.8,1462.26,,Idle,0,25,FALSE,10,TRUE,,Go Home,39.89194733,-105.2622261,0.4,6133.7,393.7,TRUE,1,1,FALSE,FALSE,FALSE,FALSE,0,TRUE,FALSE,FALSE,Course Lock,98.4,,16.4,Calm,9,Android, 4.8.0,dronefo...-Mavic 2 Enterprise,276DFAP001US71,0K8HF9H01103JN,,161AFA863601QP,223.9,6830.5,83.3,46.5,9.2,0,224,dronefo...-Mavic 2 Enterprise,276DFAP001US71,0K8HF9H01103JN,,161AFA863601QP,,Android, 4.8.0,,,,,,
20,11/20/2018,57:54.3,0m 1.9s,1.9,39.89194681,-105.2622247,0,0,0.3,6402,0,0,0,0,0,0,0,0,6,3.6,-51.4,308.6,Manual Takeoff,Other,Takeoff (RC Assisted),16,5,TRUE,,Mavic 2 Enterprise,TRUE,FALSE,,Smart,RC,TRUE,TRUE,FALSE,,,TRUE,,FALSE,FALSE,FALSE,FALSE,FALSE,FALSE,FALSE,FALSE,FALSE,FALSE,0,Follow Yaw,0,0,-51.7,308.3,FALSE,FALSE,FALSE,FALSE,FALSE,TRUE,,TRUE,Card Too Slow,,,1024,1024,1215,1024,0,FALSE,FALSE,FALSE,FALSE,FALSE,0,FALSE,FALSE,FALSE,FALSE,85,,,,16.611,FALSE,4.176,4.182,4.18,4.175,0.007,FALSE,FALSE,,,,,0,0,0,15,10,5702.8,1462.26,,Idle,0,25,FALSE,10,TRUE,,Go Home,39.89194733,-105.2622261,0.4,6133.7,393.7,TRUE,1,1,FALSE,FALSE,FALSE,FALSE,0,TRUE,FALSE,FALSE,Course Lock,98.4,,16.4,Calm,9,Android, 4.8.0,dronefo...-Mavic 2 Enterprise,276DFAP001US71,0K8HF9H01103JN,,161AFA863601QP,223.9,6830.5,83.3,46.5,9.2,0,224,dronefo...-Mavic 2 Enterprise,276DFAP001US71,0K8HF9H01103JN,,161AFA863601QP,,Android, 4.8.0,,,,,,
21,11/20/2018,57:54.4,0m 2.0s,2,39.89194683,-105.2622247,0,0,0.3,6402,0,0,0,0,0,0,0,0,6,3.6,-51.3,308.7,Manual Takeoff,Other,Takeoff (RC Assisted),16,5,TRUE,,Mavic 2 Enterprise,TRUE,FALSE,,Smart,RC,TRUE,TRUE,FALSE,,,TRUE,,FALSE,FALSE,FALSE,FALSE,FALSE,FALSE,FALSE,FALSE,FALSE,FALSE,0,Follow Yaw,0,0,-51.7,308.3,FALSE,FALSE,FALSE,FALSE,FALSE,TRUE,,TRUE,Card Too Slow,,,1024,1024,1568,1024,0,FALSE,FALSE,FALSE,FALSE,FALSE,0,FALSE,FALSE,FALSE,FALSE,85,,,,16.576,FALSE,4.144,4.149,4.147,4.136,0.013,FALSE,FALSE,,,,,0,0,0,15,10,5702.8,1462.26,,Idle,0,25,FALSE,10,TRUE,,Go Home,39.89194733,-105.2622261,0.4,6133.7,393.7,TRUE,1,1,FALSE,FALSE,FALSE,FALSE,0,TRUE,FALSE,FALSE,Course Lock,98.4,,16.4,Calm,9,Android, 4.8.0,dronefo...-Mavic 2 Enterprise,276DFAP001US71,0K8HF9H01103JN,,161AFA863601QP,223.9,6830.5,83.3,46.5,9.2,0,224,dronefo...-Mavic 2 Enterprise,276DFAP001US71,0K8HF9H01103JN,,161AFA863601QP,,Android, 4.8.0,,,,,,
22,11/20/2018,57:54.5,0m 2.1s,2.1,39.8919468,-105.2622246,0,0,0.3,6402,0,0,0,0,0,0,0,0,6,3.6,-51.4,308.6,Manual Takeoff,Other,Takeoff (RC Assisted),16,5,TRUE,,Mavic 2 Enterprise,TRUE,FALSE,,Smart,RC,TRUE,TRUE,FALSE,,,TRUE,,FALSE,FALSE,FALSE,FALSE,FALSE,FALSE,FALSE,FALSE,FALSE,FALSE,0,Follow Yaw,0,0,-51.7,308.3,FALSE,FALSE,FALSE,FALSE,FALSE,TRUE,,TRUE,Card Too Slow,,,1024,1024,1684,1024,0,FALSE,FALSE,FALSE,FALSE,FALSE,0,FALSE,FALSE,FALSE,FALSE,85,,,,16.576,FALSE,4.144,4.149,4.147,4.136,0.013,FALSE,FALSE,,,,,0,0,0,15,10,5702.8,1462.26,,Idle,0,25,FALSE,10,TRUE,,Go Home,39.89194733,-105.2622261,0.4,6133.7,393.7,TRUE,1,1,FALSE,FALSE,FALSE,FALSE,0,TRUE,FALSE,FALSE,Course Lock,98.4,,16.4,Calm,9,Android, 4.8.0,dronefo...-Mavic 2 Enterprise,276DFAP001US71,0K8HF9H01103JN,,161AFA863601QP,223.9,6830.5,83.3,46.5,9.2,0,224,dronefo...-Mavic 2 Enterprise,276DFAP001US71,0K8HF9H01103JN,,161AFA863601QP,,Android, 4.8.0,,,,,,
23,11/20/2018,57:54.6,0m 2.2s,2.2,39.89194682,-105.2622245,0,0,0.3,6402,0,0,0,0,0,0,0,0,6,3.6,-51.3,308.7,Manual Takeoff,Other,Takeoff (RC Assisted),16,5,TRUE,,Mavic 2 Enterprise,TRUE,FALSE,,Smart,RC,TRUE,TRUE,FALSE,,,TRUE,,FALSE,FALSE,FALSE,FALSE,FALSE,FALSE,FALSE,FALSE,FALSE,FALSE,0,Follow Yaw,0,0,-51.7,308.3,FALSE,FALSE,FALSE,FALSE,FALSE,TRUE,,TRUE,Card Too Slow,,,1024,1024,1684,1024,0,FALSE,FALSE,FALSE,FALSE,FALSE,0,FALSE,FALSE,FALSE,FALSE,85,,,,16.576,FALSE,4.144,4.149,4.147,4.136,0.013,FALSE,FALSE,,,,,0,0,0,15,10,5702.8,1462.26,,Idle,0,25,FALSE,10,TRUE,,Go Home,39.89194733,-105.2622261,0.4,6133.7,393.7,TRUE,1,1,FALSE,FALSE,FALSE,FALSE,0,TRUE,FALSE,FALSE,Course Lock,98.4,,16.4,Calm,9,Android, 4.8.0,dronefo...-Mavic 2 Enterprise,276DFAP001US71,0K8HF9H01103JN,,161AFA863601QP,223.9,6830.5,83.3,46.5,9.2,0,224,dronefo...-Mavic 2 Enterprise,276DFAP001US71,0K8HF9H01103JN,,161AFA863601QP,,Android, 4.8.0,,,,,,
24,11/20/2018,57:54.7,0m 2.3s,2.3,39.89194695,-105.2622247,0,0,0.3,6402,0,0,0,0,0,0,0,0,6,3.6,-51.3,308.7,Manual Takeoff,Other,Takeoff (RC Assisted),16,5,TRUE,,Mavic 2 Enterprise,TRUE,FALSE,,Smart,RC,TRUE,TRUE,FALSE,,,TRUE,,FALSE,FALSE,FALSE,FALSE,FALSE,FALSE,FALSE,FALSE,FALSE,FALSE,0,Follow Yaw,0,0,-51.7,308.3,FALSE,FALSE,FALSE,FALSE,FALSE,TRUE,,TRUE,Card Too Slow,,,1024,1024,1684,1024,0,FALSE,FALSE,FALSE,FALSE,FALSE,0,FALSE,FALSE,FALSE,FALSE,85,,,,16.576,FALSE,4.144,4.149,4.147,4.136,0.013,FALSE,FALSE,,,,,0,0,0,15,10,5702.8,1462.26,,Idle,0,25,FALSE,10,TRUE,,Go Home,39.89194733,-105.2622261,0.4,6133.7,393.7,TRUE,1,1,FALSE,FALSE,FALSE,FALSE,0,TRUE,FALSE,FALSE,Course Lock,98.4,,16.4,Calm,9,Android, 4.8.0,dronefo...-Mavic 2 Enterprise,276DFAP001US71,0K8HF9H01103JN,,161AFA863601QP,223.9,6830.5,83.3,46.5,9.2,0,224,dronefo...-Mavic 2 Enterprise,276DFAP001US71,0K8HF9H01103JN,,161AFA863601QP,,Android, 4.8.0,,,,,,
25,11/20/2018,57:54.8,0m 2.4s,2.4,39.89194697,-105.2622247,0,0,0.3,6402,1.1,1.1,0,0,0,0,0,0,6,3.6,-51.3,308.7,Manual Takeoff,Other,Takeoff (RC Assisted),16,5,TRUE,,Mavic 2 Enterprise,TRUE,FALSE,,Smart,RC,TRUE,TRUE,FALSE,,,TRUE,,FALSE,FALSE,FALSE,FALSE,FALSE,FALSE,FALSE,FALSE,FALSE,FALSE,0,Follow Yaw,0,0,-51.7,308.3,FALSE,FALSE,FALSE,FALSE,FALSE,TRUE,,TRUE,Card Too Slow,,,1024,1024,1684,1024,0,FALSE,FALSE,FALSE,FALSE,FALSE,0,FALSE,FALSE,FALSE,FALSE,85,,,,16.576,FALSE,4.144,4.149,4.147,4.136,0.013,FALSE,FALSE,,,,,0,0,0,15,10,5702.8,1462.26,,Idle,0,25,FALSE,10,TRUE,,Go Home,39.89194733,-105.2622261,0.5,6133.7,393.7,TRUE,1,1,FALSE,FALSE,FALSE,FALSE,0,TRUE,FALSE,FALSE,Course Lock,98.4,,16.4,Calm,9,Android, 4.8.0,dronefo...-Mavic 2 Enterprise,276DFAP001US71,0K8HF9H01103JN,,161AFA863601QP,223.9,6830.5,83.3,46.5,9.2,0,224,dronefo...-Mavic 2 Enterprise,276DFAP001US71,0K8HF9H01103JN,,161AFA863601QP,,Android, 4.8.0,,,,,,
26,11/20/2018,57:54.9,0m 2.5s,2.5,39.89194694,-105.2622246,0,0,0.3,6402,1.1,1.1,0,0,0,0,0,0,5.1,3.7,-51.7,308.3,Manual Takeoff,Other,Takeoff (RC Assisted),16,5,TRUE,,Mavic 2 Enterprise,TRUE,FALSE,,Smart,RC,TRUE,TRUE,FALSE,,,TRUE,,FALSE,FALSE,FALSE,FALSE,FALSE,FALSE,FALSE,FALSE,FALSE,FALSE,0,Follow Yaw,0,0,-51.7,308.3,FALSE,FALSE,FALSE,FALSE,FALSE,TRUE,,TRUE,Card Too Slow,,,1024,1024,1684,1024,0,FALSE,FALSE,FALSE,FALSE,FALSE,0,FALSE,FALSE,FALSE,FALSE,85,,,,16.576,FALSE,4.144,4.149,4.147,4.136,0.013,FALSE,FALSE,,,,,0,0,0,15,10,5702.8,1462.26,,Idle,0,25,FALSE,10,TRUE,,Go Home,39.89194733,-105.2622261,0.5,6133.7,393.7,TRUE,1,1,FALSE,FALSE,FALSE,FALSE,0,TRUE,FALSE,FALSE,Course Lock,98.4,,16.4,Calm,9,Android, 4.8.0,dronefo...-Mavic 2 Enterprise,276DFAP001US71,0K8HF9H01103JN,,161AFA863601QP,223.9,6830.5,83.3,46.5,9.2,0,224,dronefo...-Mavic 2 Enterprise,276DFAP001US71,0K8HF9H01103JN,,161AFA863601QP,,Android, 4.8.0,,,,,,
27,11/20/2018,57:55.0,0m 2.6s,2.6,39.89194697,-105.2622245,0,0,0.3,6402,1.5,1.5,0,0,0,0,0,0,1.3,3.8,-53.3,306.7,Manual Takeoff,Other,Takeoff (RC Assisted),16,5,TRUE,,Mavic 2 Enterprise,TRUE,FALSE,,Smart,RC,TRUE,TRUE,FALSE,,,TRUE,,FALSE,FALSE,FALSE,FALSE,FALSE,FALSE,FALSE,FALSE,FALSE,FALSE,0,Follow Yaw,0,0,-51.7,308.3,FALSE,FALSE,FALSE,FALSE,FALSE,TRUE,,TRUE,Card Too Slow,,,1024,1024,1684,1024,0,FALSE,FALSE,FALSE,FALSE,FALSE,0,FALSE,FALSE,FALSE,FALSE,85,,,,16.638,FALSE,4.144,4.149,4.147,4.136,0.013,FALSE,FALSE,,,,,0,0,0,15,10,6472.6,1659.64,,Idle,0,25,FALSE,10,TRUE,,Go Home,39.89194733,-105.2622261,0.5,6133.7,393.7,TRUE,1,1,FALSE,FALSE,FALSE,FALSE,0,TRUE,FALSE,FALSE,Course Lock,98.4,,16.4,Calm,9,Android, 4.8.0,dronefo...-Mavic 2 Enterprise,276DFAP001US71,0K8HF9H01103JN,,161AFA863601QP,223.9,6830.5,83.3,46.5,9.2,0,224,dronefo...-Mavic 2 Enterprise,276DFAP001US71,0K8HF9H01103JN,,161AFA863601QP,,Android, 4.8.0,,,,,,
28,11/20/2018,57:55.1,0m 2.7s,2.7,39.89194698,-105.2622245,0,0,0.3,6402,1.1,1.5,0,0,0,0,-0.2,0,-2.8,2.6,-54.8,305.2,Manual Takeoff,Other,,16,5,TRUE,,Mavic 2 Enterprise,TRUE,FALSE,,Smart,RC,FALSE,TRUE,FALSE,,,TRUE,,FALSE,FALSE,FALSE,FALSE,FALSE,FALSE,FALSE,FALSE,FALSE,FALSE,0,Follow Yaw,0,0,-51.8,308.2,FALSE,FALSE,FALSE,FALSE,FALSE,TRUE,,TRUE,Card Too Slow,,,1024,1024,1684,1024,0,FALSE,FALSE,FALSE,FALSE,FALSE,0,FALSE,FALSE,FALSE,FALSE,85,,,,16.638,FALSE,4.144,4.149,4.147,4.136,0.013,FALSE,FALSE,,,,,0,0,0,15,10,6472.6,1659.64,,Idle,0,25,FALSE,10,TRUE,,Go Home,39.89194733,-105.2622261,0.4,6133.7,393.7,TRUE,1,1,FALSE,FALSE,FALSE,FALSE,0,TRUE,FALSE,FALSE,Course Lock,98.4,,16.4,Calm,9,Android, 4.8.0,dronefo...-Mavic 2 Enterprise,276DFAP001US71,0K8HF9H01103JN,,161AFA863601QP,223.9,6830.5,83.3,46.5,9.2,0,224,dronefo...-Mavic 2 Enterprise,276DFAP001US71,0K8HF9H01103JN,,161AFA863601QP,,Android, 4.8.0,,,,,,
29,11/20/2018,57:55.2,0m 2.8s,2.8,39.8919471,-105.2622245,0,0,0.3,6402,1.1,1.5,0.2,0.2,0,0,-0.7,0,-2.2,0.3,-54.4,305.6,P-GPS,Other,,16,5,TRUE,,Mavic 2 Enterprise,TRUE,FALSE,,Smart,RC,FALSE,TRUE,FALSE,,,TRUE,,FALSE,FALSE,FALSE,FALSE,FALSE,FALSE,FALSE,FALSE,FALSE,FALSE,0,Follow Yaw,0,0,-51.8,308.2,FALSE,FALSE,FALSE,FALSE,FALSE,TRUE,,TRUE,Card Too Slow,,,1024,1024,1684,1024,0,FALSE,FALSE,FALSE,FALSE,FALSE,0,FALSE,FALSE,FALSE,FALSE,85,,,,16.638,FALSE,4.144,4.149,4.147,4.136,0.013,FALSE,FALSE,,,,,0,0,0,15,10,6472.6,1659.64,,Idle,0,25,FALSE,10,TRUE,,Go Home,39.89194733,-105.2622261,0.4,6133.7,393.7,TRUE,1,1,FALSE,FALSE,FALSE,FALSE,0,TRUE,FALSE,FALSE,Course Lock,98.4,,16.4,Calm,9,Android, 4.8.0,dronefo...-Mavic 2 Enterprise,276DFAP001US71,0K8HF9H01103JN,,161AFA863601QP,223.9,6830.5,83.3,46.5,9.2,0,224,dronefo...-Mavic 2 Enterprise,276DFAP001US71,0K8HF9H01103JN,,161AFA863601QP,,Android, 4.8.0,,,,,,
30,11/20/2018,57:55.3,0m 2.9s,2.9,39.89194719,-105.2622245,0,0,0.7,6402,0,1.5,0.2,0.2,0,0,-1.1,0,-0.5,-1.1,-54.3,305.7,P-GPS,Other,,16,5,TRUE,,Mavic 2 Enterprise,TRUE,FALSE,,Smart,RC,FALSE,TRUE,FALSE,,,TRUE,,FALSE,FALSE,FALSE,FALSE,FALSE,FALSE,FALSE,FALSE,FALSE,FALSE,0,Follow Yaw,0,0,-51.8,308.2,FALSE,FALSE,FALSE,FALSE,FALSE,TRUE,,TRUE,Card Too Slow,,,1024,1024,1684,1024,0,FALSE,FALSE,FALSE,FALSE,FALSE,0,FALSE,FALSE,FALSE,FALSE,85,,,,16.638,FALSE,4.144,4.149,4.147,4.136,0.013,FALSE,FALSE,,,,,0,0,0,15,10,6472.6,1659.64,,Idle,0,25,FALSE,10,TRUE,,Go Home,39.89194733,-105.2622261,0.4,6133.7,393.7,TRUE,1,1,FALSE,FALSE,FALSE,FALSE,0,TRUE,FALSE,FALSE,Course Lock,98.4,,16.4,Calm,9,Android, 4.8.0,dronefo...-Mavic 2 Enterprise,276DFAP001US71,0K8HF9H01103JN,,161AFA863601QP,223.9,6830.5,83.3,46.5,9.2,0,224,dronefo...-Mavic 2 Enterprise,276DFAP001US71,0K8HF9H01103JN,,161AFA863601QP,,Android, 4.8.0,,,,,,
31,11/20/2018,57:55.4,0m 3.0s,3,39.89194734,-105.2622244,0.3,0.3,0.7,6403,0,1.5,0.2,0.2,0,0,-1.6,0,1,-1.2,-54.3,305.7,P-GPS,Other,,16,5,TRUE,,Mavic 2 Enterprise,TRUE,FALSE,,Smart,RC,FALSE,TRUE,FALSE,,,TRUE,,FALSE,FALSE,FALSE,FALSE,FALSE,FALSE,FALSE,FALSE,FALSE,FALSE,0,Follow Yaw,0,0,-51.8,308.2,FALSE,FALSE,FALSE,FALSE,FALSE,TRUE,,TRUE,Card Too Slow,,,1024,1024,1684,1024,0,FALSE,FALSE,FALSE,FALSE,FALSE,0,FALSE,FALSE,FALSE,FALSE,85,,,,16.681,FALSE,4.168,4.174,4.173,4.166,0.013,FALSE,FALSE,,,,,0,0,0,15,10,6472.6,1659.64,,Idle,0,25,FALSE,10,TRUE,,Go Home,39.89194733,-105.2622261,0.4,6133.7,393.7,TRUE,1,1,FALSE,FALSE,FALSE,FALSE,0,TRUE,FALSE,FALSE,Course Lock,98.4,,16.4,Calm,9,Android, 4.8.0,dronefo...-Mavic 2 Enterprise,276DFAP001US71,0K8HF9H01103JN,,161AFA863601QP,223.9,6830.5,83.3,46.5,9.2,0,224,dronefo...-Mavic 2 Enterprise,276DFAP001US71,0K8HF9H01103JN,,161AFA863601QP,,Android, 4.8.0,,,,,,
32,11/20/2018,57:55.5,0m 3.1s,3.1,39.89194729,-105.2622245,0.7,0.7,0.7,6403,0,1.5,0.2,0.2,0,0,-2,0,1.8,-0.9,-54.4,305.6,P-GPS,Other,,16,5,TRUE,,Mavic 2 Enterprise,TRUE,FALSE,,Smart,RC,FALSE,TRUE,FALSE,,,TRUE,,FALSE,FALSE,FALSE,FALSE,FALSE,FALSE,FALSE,FALSE,FALSE,FALSE,0,Follow Yaw,0,0,-51.8,308.2,FALSE,FALSE,FALSE,FALSE,FALSE,TRUE,,TRUE,Card Too Slow,,,1024,1024,1684,1024,0,FALSE,FALSE,FALSE,FALSE,FALSE,0,FALSE,FALSE,FALSE,FALSE,85,,,,16.681,FALSE,4.168,4.174,4.173,4.166,0.013,FALSE,FALSE,,,,,0,0,0,15,10,6472.6,1659.64,,Idle,0,25,FALSE,10,TRUE,,Go Home,39.89194733,-105.2622261,0.4,6133.7,393.7,TRUE,1,1,FALSE,FALSE,FALSE,FALSE,0,TRUE,FALSE,FALSE,Course Lock,98.4,,16.4,Calm,9,Android, 4.8.0,dronefo...-Mavic 2 Enterprise,276DFAP001US71,0K8HF9H01103JN,,161AFA863601QP,223.9,6830.5,83.3,46.5,9.2,0,224,dronefo...-Mavic 2 Enterprise,276DFAP001US71,0K8HF9H01103JN,,161AFA863601QP,,Android, 4.8.0,,,,,,
33,11/20/2018,57:55.6,0m 3.2s,3.2,39.89194739,-105.2622244,1,1,1,6403,1.1,1.5,0.2,0.2,0.2,0.2,-2.7,0,1.1,-1.3,-54.7,305.3,P-GPS,Other,,16,5,TRUE,,Mavic 2 Enterprise,TRUE,FALSE,,Smart,RC,FALSE,TRUE,FALSE,,,TRUE,,FALSE,FALSE,FALSE,FALSE,FALSE,FALSE,FALSE,FALSE,FALSE,FALSE,0,Follow Yaw,0,0,-51.8,308.2,FALSE,FALSE,FALSE,FALSE,FALSE,TRUE,,TRUE,Card Too Slow,,,1024,1024,1684,1024,0,FALSE,FALSE,FALSE,FALSE,FALSE,0,FALSE,FALSE,FALSE,FALSE,85,,,,16.681,FALSE,4.168,4.174,4.173,4.166,0.013,FALSE,FALSE,,,,,0,0,0,15,10,6472.6,1659.64,,Idle,0,25,FALSE,10,TRUE,,Go Home,39.89194733,-105.2622261,0.4,6133.7,393.7,TRUE,1,1,FALSE,FALSE,FALSE,FALSE,0,TRUE,FALSE,FALSE,Course Lock,98.4,,16.4,Calm,9,Android, 4.8.0,dronefo...-Mavic 2 Enterprise,276DFAP001US71,0K8HF9H01103JN,,161AFA863601QP,223.9,6830.5,83.3,46.5,9.2,0,224,dronefo...-Mavic 2 Enterprise,276DFAP001US71,0K8HF9H01103JN,,161AFA863601QP,,Android, 4.8.0,,,,,,
34,11/20/2018,57:55.7,0m 3.3s,3.3,39.89194752,-105.262224,1.3,1.3,1.3,6404,0,1.5,0,0.2,0.2,0.2,-3.4,0,0,-1.8,-54.6,305.4,P-GPS,Other,,16,5,TRUE,,Mavic 2 Enterprise,TRUE,FALSE,,Smart,RC,FALSE,TRUE,FALSE,,,TRUE,,FALSE,FALSE,FALSE,FALSE,FALSE,FALSE,FALSE,FALSE,FALSE,FALSE,0,Follow Yaw,0,0,-51.8,308.2,FALSE,FALSE,FALSE,FALSE,FALSE,TRUE,,TRUE,Card Too Slow,,,1024,1024,1684,1024,0,FALSE,FALSE,FALSE,FALSE,FALSE,0,FALSE,FALSE,FALSE,FALSE,85,,,,16.681,FALSE,4.168,4.174,4.173,4.166,0.013,FALSE,FALSE,,,,,0,0,0,15,10,6472.6,1659.64,,Idle,0,25,FALSE,10,TRUE,,Go Home,39.89194733,-105.2622261,0.6,6133.7,393.7,TRUE,1,1,FALSE,FALSE,FALSE,FALSE,0,TRUE,FALSE,FALSE,Course Lock,98.4,,16.4,Calm,9,Android, 4.8.0,dronefo...-Mavic 2 Enterprise,276DFAP001US71,0K8HF9H01103JN,,161AFA863601QP,223.9,6830.5,83.3,46.5,9.2,0,224,dronefo...-Mavic 2 Enterprise,276DFAP001US71,0K8HF9H01103JN,,161AFA863601QP,,Android, 4.8.0,,,,,,
35,11/20/2018,57:55.8,0m 3.4s,3.4,39.89194758,-105.2622239,2,2,2,6404,0,1.5,0,0.2,0.2,0.2,-4,0,-1,-1.8,-54.5,305.5,P-GPS,Other,,16,5,TRUE,,Mavic 2 Enterprise,TRUE,FALSE,,Smart,RC,FALSE,TRUE,FALSE,,,TRUE,,FALSE,FALSE,FALSE,FALSE,FALSE,FALSE,FALSE,FALSE,FALSE,FALSE,0,Follow Yaw,0,0,-51.8,308.2,FALSE,FALSE,FALSE,FALSE,FALSE,TRUE,,TRUE,Card Too Slow,,,1024,1024,1684,1024,0,FALSE,FALSE,FALSE,FALSE,FALSE,0,FALSE,FALSE,FALSE,FALSE,85,,,,16.681,FALSE,4.168,4.174,4.173,4.166,0.013,FALSE,FALSE,,,,,0,0,0,15,10,6472.6,1659.64,,Idle,0,25,FALSE,10,TRUE,,Go Home,39.89194733,-105.2622261,0.7,6133.7,393.7,TRUE,1,1,FALSE,FALSE,FALSE,FALSE,0,TRUE,FALSE,FALSE,Course Lock,98.4,,16.4,Calm,9,Android, 4.8.0,dronefo...-Mavic 2 Enterprise,276DFAP001US71,0K8HF9H01103JN,,161AFA863601QP,223.9,6830.5,83.3,46.5,9.2,0,224,dronefo...-Mavic 2 Enterprise,276DFAP001US71,0K8HF9H01103JN,,161AFA863601QP,,Android, 4.8.0,,,,,,
36,11/20/2018,57:55.9,0m 3.5s,3.5,39.89194758,-105.2622235,2.6,2.6,2.6,6405,1.1,1.5,0,0.2,0.2,0.2,-4.9,0,-1.1,-1.7,-54.4,305.6,P-GPS,Other,,16,5,TRUE,,Mavic 2 Enterprise,TRUE,FALSE,,Smart,RC,FALSE,TRUE,FALSE,,,TRUE,,FALSE,FALSE,FALSE,FALSE,FALSE,FALSE,FALSE,FALSE,FALSE,FALSE,0,Follow Yaw,0,0,-51.8,308.2,FALSE,FALSE,FALSE,FALSE,FALSE,TRUE,,TRUE,Card Too Slow,,,1024,1024,1684,1024,0,FALSE,FALSE,FALSE,FALSE,FALSE,0,FALSE,FALSE,FALSE,FALSE,85,,,,16.681,FALSE,4.168,4.174,4.173,4.166,0.013,FALSE,FALSE,,,,,0,0,0,15,10,6472.6,1659.64,,Idle,0,25,FALSE,10,TRUE,,Go Home,39.89194733,-105.2622261,0.8,6133.7,393.7,TRUE,1,1,FALSE,FALSE,FALSE,FALSE,0,TRUE,FALSE,FALSE,Course Lock,98.4,,16.4,Calm,9,Android, 4.8.0,dronefo...-Mavic 2 Enterprise,276DFAP001US71,0K8HF9H01103JN,,161AFA863601QP,223.9,6830.5,83.3,46.5,9.2,0,224,dronefo...-Mavic 2 Enterprise,276DFAP001US71,0K8HF9H01103JN,,161AFA863601QP,,Android, 4.8.0,,,,,,
37,11/20/2018,57:56.0,0m 3.6s,3.6,39.89194762,-105.2622233,3.3,3.3,3.6,6406,0,1.5,0,0.2,0,0.2,-5.8,0,-0.7,-2.1,-54.4,305.6,P-GPS,Other,,16,5,TRUE,,Mavic 2 Enterprise,TRUE,FALSE,,Smart,RC,FALSE,TRUE,FALSE,,,TRUE,,FALSE,FALSE,FALSE,FALSE,FALSE,FALSE,FALSE,FALSE,FALSE,FALSE,0,Follow Yaw,0,0,-51.8,308.2,FALSE,FALSE,FALSE,FALSE,FALSE,TRUE,,TRUE,Card Too Slow,,,1024,1024,1684,1024,0,FALSE,FALSE,FALSE,FALSE,FALSE,0,FALSE,FALSE,FALSE,FALSE,85,,,,16.422,FALSE,4.168,4.174,4.173,4.166,0.013,FALSE,FALSE,,,,,0,0,0,15,10,7879.2,2020.3,,Idle,0,25,FALSE,10,TRUE,,Go Home,39.89194698,-105.2622245,0.4,6133.7,393.7,TRUE,1,1,FALSE,FALSE,FALSE,FALSE,0,TRUE,FALSE,FALSE,Course Lock,98.4,,16.4,Calm,9,Android, 4.8.0,dronefo...-Mavic 2 Enterprise,276DFAP001US71,0K8HF9H01103JN,,161AFA863601QP,223.9,6830.5,83.3,46.5,9.2,0,224,dronefo...-Mavic 2 Enterprise,276DFAP001US71,0K8HF9H01103JN,,161AFA863601QP,,Android, 4.8.0,,,,Home Point Updated.,,
38,11/20/2018,57:56.1,0m 3.7s,3.7,39.89194758,-105.2622232,4.3,4.3,4.6,6407,0,1.5,0,0.2,0,0.2,-6.7,0,-0.5,-2.5,-54.4,305.6,P-GPS,Other,,16,5,TRUE,,Mavic 2 Enterprise,TRUE,FALSE,,Smart,RC,FALSE,TRUE,FALSE,,,TRUE,,FALSE,FALSE,FALSE,FALSE,FALSE,FALSE,FALSE,FALSE,FALSE,FALSE,0,Follow Yaw,0,0,-51.8,308.2,FALSE,FALSE,FALSE,FALSE,FALSE,TRUE,,TRUE,Card Too Slow,,,1024,1024,1684,1024,0,FALSE,FALSE,FALSE,FALSE,FALSE,0,FALSE,FALSE,FALSE,FALSE,85,,,,16.422,FALSE,4.168,4.174,4.173,4.166,0.013,FALSE,FALSE,,,,,0,0,0,15,10,7879.2,2020.3,,Idle,0,25,FALSE,10,TRUE,,Go Home,39.89194698,-105.2622245,0.4,6133.7,393.7,TRUE,1,1,FALSE,FALSE,FALSE,FALSE,0,TRUE,FALSE,FALSE,Course Lock,98.4,,16.4,Calm,9,Android, 4.8.0,dronefo...-Mavic 2 Enterprise,276DFAP001US71,0K8HF9H01103JN,,161AFA863601QP,223.9,6830.5,83.3,46.5,9.2,0,224,dronefo...-Mavic 2 Enterprise,276DFAP001US71,0K8HF9H01103JN,,161AFA863601QP,,Android, 4.8.0,,,,,,
39,11/20/2018,57:56.3,0m 3.8s,3.8,39.89194757,-105.2622231,5.2,5.2,5.6,6408,0,1.5,0,0.2,0,0.2,-7.6,0,-0.8,-2.5,-54.4,305.6,P-GPS,Other,,16,5,TRUE,,Mavic 2 Enterprise,TRUE,FALSE,,Smart,RC,FALSE,TRUE,FALSE,,,TRUE,,FALSE,FALSE,FALSE,FALSE,FALSE,FALSE,FALSE,FALSE,FALSE,FALSE,0,Follow Yaw,0,0,-51.8,308.2,FALSE,FALSE,FALSE,FALSE,FALSE,TRUE,,TRUE,Card Too Slow,,,1024,1024,1684,1024,0,FALSE,FALSE,FALSE,FALSE,FALSE,0,FALSE,FALSE,FALSE,FALSE,85,,,,16.422,FALSE,4.168,4.174,4.173,4.166,0.013,FALSE,FALSE,,,,,0,0,0,15,10,7879.2,2020.3,,Idle,0,25,FALSE,10,TRUE,,Go Home,39.89194698,-105.2622245,0.5,6133.7,393.7,TRUE,1,1,FALSE,FALSE,FALSE,FALSE,0,TRUE,FALSE,FALSE,Course Lock,98.4,,16.4,Calm,9,Android, 4.8.0,dronefo...-Mavic 2 Enterprise,276DFAP001US71,0K8HF9H01103JN,,161AFA863601QP,223.9,6830.5,83.3,46.5,9.2,0,224,dronefo...-Mavic 2 Enterprise,276DFAP001US71,0K8HF9H01103JN,,161AFA863601QP,,Android, 4.8.0,,,,,,
40,11/20/2018,57:56.4,0m 3.9s,3.9,39.89194757,-105.2622229,6.6,6.6,6.9,6409,0,1.5,0,0.2,0,0.2,-8.3,0,-1.1,-1.9,-54.4,305.6,P-GPS,Other,,16,5,TRUE,,Mavic 2 Enterprise,TRUE,FALSE,,Smart,RC,FALSE,TRUE,FALSE,,,TRUE,,FALSE,FALSE,FALSE,FALSE,FALSE,FALSE,FALSE,FALSE,FALSE,FALSE,0,Follow Yaw,0,0,-51.8,308.2,FALSE,FALSE,FALSE,FALSE,FALSE,TRUE,,TRUE,Card Too Slow,,,1024,1024,1684,1024,0,FALSE,FALSE,FALSE,FALSE,FALSE,0,FALSE,FALSE,FALSE,FALSE,85,,,,16.383,FALSE,4.102,4.103,4.098,4.08,0.023,FALSE,FALSE,,,,,0,0,0,15,10,7879.2,2020.3,,Idle,0,25,FALSE,10,TRUE,,Go Home,39.89194698,-105.2622245,0.5,6133.7,393.7,TRUE,1,1,FALSE,FALSE,FALSE,FALSE,0,TRUE,FALSE,FALSE,Course Lock,98.4,,16.4,Calm,9,Android, 4.8.0,dronefo...-Mavic 2 Enterprise,276DFAP001US71,0K8HF9H01103JN,,161AFA863601QP,223.9,6830.5,83.3,46.5,9.2,0,224,dronefo...-Mavic 2 Enterprise,276DFAP001US71,0K8HF9H01103JN,,161AFA863601QP,,Android, 4.8.0,,,,,,
41,11/20/2018,57:56.5,0m 4.0s,4,39.89194755,-105.2622228,7.9,7.9,8.2,6410,0,1.5,0,0.2,0,0.2,-8.7,0,-1.1,-1.7,-54.5,305.5,P-GPS,Other,,16,5,TRUE,,Mavic 2 Enterprise,TRUE,FALSE,,Smart,RC,FALSE,TRUE,FALSE,,,TRUE,,FALSE,FALSE,FALSE,FALSE,FALSE,FALSE,FALSE,FALSE,FALSE,FALSE,0,Follow Yaw,0,0,-51.8,308.2,FALSE,FALSE,FALSE,FALSE,FALSE,TRUE,,TRUE,Card Too Slow,,,1024,1024,1684,1024,0,FALSE,FALSE,FALSE,FALSE,FALSE,0,FALSE,FALSE,FALSE,FALSE,85,,,,16.383,FALSE,4.102,4.103,4.098,4.08,0.023,FALSE,FALSE,,,,,0,0,0,15,10,7879.2,2020.3,,Idle,0,25,FALSE,10,TRUE,,Go Home,39.89194698,-105.2622245,0.6,6133.7,393.7,TRUE,1,1,FALSE,FALSE,FALSE,FALSE,0,TRUE,FALSE,FALSE,Course Lock,98.4,,16.4,Calm,9,Android, 4.8.0,dronefo...-Mavic 2 Enterprise,276DFAP001US71,0K8HF9H01103JN,,161AFA863601QP,223.9,6830.5,83.3,46.5,9.2,0,224,dronefo...-Mavic 2 Enterprise,276DFAP001US71,0K8HF9H01103JN,,161AFA863601QP,,Android, 4.8.0,,,,,,
42,11/20/2018,57:56.6,0m 4.1s,4.1,39.8919475,-105.2622226,9.2,9.2,9.5,6411,0,1.5,0,0.2,0,0.2,-9.2,0,-0.8,-1.9,-54.6,305.4,P-GPS,Other,,16,5,TRUE,,Mavic 2 Enterprise,TRUE,FALSE,,Smart,RC,FALSE,TRUE,FALSE,,,TRUE,,FALSE,FALSE,FALSE,FALSE,FALSE,FALSE,FALSE,FALSE,FALSE,FALSE,0,Follow Yaw,0,0,-51.8,308.2,FALSE,FALSE,FALSE,FALSE,FALSE,TRUE,,TRUE,Card Too Slow,,,1024,1024,1684,1024,0,FALSE,FALSE,FALSE,FALSE,FALSE,0,FALSE,FALSE,FALSE,FALSE,85,,,,16.383,FALSE,4.102,4.103,4.098,4.08,0.023,FALSE,FALSE,,,,,0,0,0,15,10,7879.2,2020.3,,Idle,0,25,FALSE,10,TRUE,,Go Home,39.89194698,-105.2622245,0.6,6133.7,393.7,TRUE,1,1,FALSE,FALSE,FALSE,FALSE,0,TRUE,FALSE,FALSE,Course Lock,98.4,,16.4,Calm,9,Android, 4.8.0,dronefo...-Mavic 2 Enterprise,276DFAP001US71,0K8HF9H01103JN,,161AFA863601QP,223.9,6830.5,83.3,46.5,9.2,0,224,dronefo...-Mavic 2 Enterprise,276DFAP001US71,0K8HF9H01103JN,,161AFA863601QP,,Android, 4.8.0,,,,,,
43,11/20/2018,57:56.6,0m 4.2s,4.2,39.89194748,-105.2622225,10.5,10.5,10.8,6413,0,1.5,0,0.2,0,0.2,-9.2,0,-0.8,-2.4,-54.5,305.5,P-GPS,Other,,16,5,TRUE,,Mavic 2 Enterprise,TRUE,FALSE,,Smart,RC,FALSE,TRUE,FALSE,,,TRUE,,FALSE,FALSE,FALSE,FALSE,FALSE,FALSE,FALSE,FALSE,FALSE,FALSE,0,Follow Yaw,0,0,-51.8,308.2,FALSE,FALSE,FALSE,FALSE,FALSE,TRUE,,TRUE,Card Too Slow,,,1024,1024,1684,1024,0,FALSE,FALSE,FALSE,FALSE,FALSE,0,FALSE,FALSE,FALSE,FALSE,85,,,,16.383,FALSE,4.102,4.103,4.098,4.08,0.023,FALSE,FALSE,,,,,0,0,0,15,10,7879.2,2020.3,,Idle,0,25,FALSE,10,TRUE,,Go Home,39.89194698,-105.2622245,0.6,6133.7,393.7,TRUE,1,1,FALSE,FALSE,FALSE,FALSE,0,TRUE,FALSE,FALSE,Course Lock,98.4,,16.4,Calm,9,Android, 4.8.0,dronefo...-Mavic 2 Enterprise,276DFAP001US71,0K8HF9H01103JN,,161AFA863601QP,223.9,6830.5,83.3,46.5,9.2,0,224,dronefo...-Mavic 2 Enterprise,276DFAP001US71,0K8HF9H01103JN,,161AFA863601QP,,Android, 4.8.0,,,,,,
44,11/20/2018,57:56.8,0m 4.3s,4.3,39.89194753,-105.2622226,11.8,11.8,12.1,6414,0,1.5,0,0.2,0,0.2,-9.2,0,0,-2.2,-54.5,305.5,P-GPS,Other,,16,5,TRUE,,Mavic 2 Enterprise,TRUE,FALSE,,Smart,RC,FALSE,TRUE,FALSE,,,TRUE,,FALSE,FALSE,FALSE,FALSE,FALSE,FALSE,FALSE,FALSE,FALSE,FALSE,0,Follow Yaw,0,0,-51.8,308.2,FALSE,FALSE,FALSE,FALSE,FALSE,TRUE,,TRUE,Card Too Slow,,,1024,1024,1684,1024,0,FALSE,FALSE,FALSE,FALSE,FALSE,0,FALSE,FALSE,FALSE,FALSE,85,,,,16.383,FALSE,4.102,4.103,4.098,4.08,0.023,FALSE,FALSE,,,,,0,0,0,15,10,7879.2,2020.3,,Idle,0,25,FALSE,10,TRUE,,Go Home,39.89194698,-105.2622245,0.6,6133.7,393.7,TRUE,1,1,FALSE,FALSE,FALSE,FALSE,0,TRUE,FALSE,FALSE,Course Lock,98.4,,16.4,Calm,9,Android, 4.8.0,dronefo...-Mavic 2 Enterprise,276DFAP001US71,0K8HF9H01103JN,,161AFA863601QP,223.9,6830.5,83.3,46.5,9.2,0,224,dronefo...-Mavic 2 Enterprise,276DFAP001US71,0K8HF9H01103JN,,161AFA863601QP,,Android, 4.8.0,,,,,,
45,11/20/2018,57:56.9,0m 4.4s,4.4,39.89194751,-105.2622226,13.5,13.5,13.5,6416,0,1.5,0,0.2,0,0.2,-9.2,0,0.5,-1.8,-54.5,305.5,P-GPS,Other,,16,5,TRUE,,Mavic 2 Enterprise,TRUE,FALSE,,Smart,RC,FALSE,TRUE,FALSE,,,TRUE,,FALSE,FALSE,FALSE,FALSE,FALSE,FALSE,FALSE,FALSE,FALSE,FALSE,0,Follow Yaw,0,0,-51.8,308.2,FALSE,FALSE,FALSE,FALSE,FALSE,TRUE,,TRUE,Card Too Slow,,,1024,1024,1684,1024,0,FALSE,FALSE,FALSE,FALSE,FALSE,0,FALSE,FALSE,FALSE,FALSE,85,,,,16.383,FALSE,4.102,4.103,4.098,4.08,0.023,FALSE,FALSE,,,,,0,0,0,15,10,7879.2,2020.3,,Idle,0,25,FALSE,10,TRUE,,Go Home,39.89194698,-105.2622245,0.6,6133.7,393.7,TRUE,1,1,FALSE,FALSE,FALSE,FALSE,0,TRUE,FALSE,FALSE,Course Lock,98.4,,16.4,Calm,9,Android, 4.8.0,dronefo...-Mavic 2 Enterprise,276DFAP001US71,0K8HF9H01103JN,,161AFA863601QP,223.9,6830.5,83.3,46.5,9.2,0,224,dronefo...-Mavic 2 Enterprise,276DFAP001US71,0K8HF9H01103JN,,161AFA863601QP,,Android, 4.8.0,,,,,,
46,11/20/2018,57:57.0,0m 4.5s,4.5,39.89194766,-105.2622228,14.8,14.8,14.8,6417,0,1.5,0,0.2,0,0.2,-9.2,0,0.5,-1.5,-54.6,305.4,P-GPS,Other,,16,5,TRUE,,Mavic 2 Enterprise,TRUE,FALSE,,Smart,RC,FALSE,TRUE,FALSE,,,TRUE,,FALSE,FALSE,FALSE,FALSE,FALSE,FALSE,FALSE,FALSE,FALSE,FALSE,0,Follow Yaw,0,0,-51.8,308.2,FALSE,FALSE,FALSE,FALSE,FALSE,TRUE,,TRUE,Card Too Slow,,,1024,1024,1684,1059,0,FALSE,FALSE,FALSE,FALSE,FALSE,0,FALSE,FALSE,FALSE,FALSE,85,,,,16.383,FALSE,4.102,4.103,4.098,4.08,0.023,FALSE,FALSE,,,,,0,0,0,15,10,7879.2,2020.3,,Idle,0,25,FALSE,10,TRUE,,Go Home,39.89194698,-105.2622245,0.6,6133.7,393.7,TRUE,1,1,FALSE,FALSE,FALSE,FALSE,0,TRUE,FALSE,FALSE,Course Lock,98.4,,16.4,Calm,9,Android, 4.8.0,dronefo...-Mavic 2 Enterprise,276DFAP001US71,0K8HF9H01103JN,,161AFA863601QP,223.9,6830.5,83.3,46.5,9.2,0,224,dronefo...-Mavic 2 Enterprise,276DFAP001US71,0K8HF9H01103JN,,161AFA863601QP,,Android, 4.8.0,,,,,,
47,11/20/2018,57:57.1,0m 4.6s,4.6,39.89194763,-105.2622228,16.1,16.1,16.1,6418,0,1.5,0,0.2,0,0.2,-9.2,0,0.3,-1.2,-54.6,305.4,P-GPS,Other,,16,5,TRUE,,Mavic 2 Enterprise,TRUE,FALSE,,Smart,RC,FALSE,TRUE,FALSE,,,TRUE,,FALSE,FALSE,FALSE,FALSE,FALSE,FALSE,FALSE,FALSE,FALSE,FALSE,0,Follow Yaw,0,0,-51.8,308.2,FALSE,FALSE,FALSE,FALSE,FALSE,TRUE,,TRUE,Card Too Slow,,,1024,1024,1684,1177,0,FALSE,FALSE,FALSE,FALSE,FALSE,0,FALSE,FALSE,FALSE,FALSE,85,,,,16.279,FALSE,4.102,4.103,4.098,4.08,0.023,FALSE,FALSE,,,,,0,0,1,15,10,10634.5,2726.81,,Idle,0,25,FALSE,10,TRUE,,Go Home,39.89194698,-105.2622245,0.5,6133.7,393.7,TRUE,1,1,FALSE,FALSE,FALSE,FALSE,0,TRUE,FALSE,FALSE,Course Lock,98.4,,16.4,Calm,9,Android, 4.8.0,dronefo...-Mavic 2 Enterprise,276DFAP001US71,0K8HF9H01103JN,,161AFA863601QP,223.9,6830.5,83.3,46.5,9.2,0,224,dronefo...-Mavic 2 Enterprise,276DFAP001US71,0K8HF9H01103JN,,161AFA863601QP,,Android, 4.8.0,,,,,,
48,11/20/2018,57:57.2,0m 4.7s,4.7,39.8919473,-105.262223,17.4,17.4,17.4,6420,1.1,1.5,0,0.2,0,0.2,-9,0,0.1,-1,-54.6,305.4,P-GPS,Other,,16,5,TRUE,,Mavic 2 Enterprise,TRUE,FALSE,,Smart,RC,FALSE,TRUE,FALSE,,,TRUE,,FALSE,FALSE,FALSE,FALSE,FALSE,FALSE,FALSE,FALSE,FALSE,FALSE,0,Follow Yaw,0,0,-51.6,308.4,FALSE,FALSE,FALSE,FALSE,FALSE,TRUE,,TRUE,Card Too Slow,,,1024,1024,1684,1320,0,FALSE,FALSE,FALSE,FALSE,FALSE,0,FALSE,FALSE,FALSE,FALSE,85,,,,16.279,FALSE,4.102,4.103,4.098,4.08,0.023,FALSE,FALSE,,,,,0,0,1,15,10,10634.5,2726.81,,Idle,0,25,FALSE,10,TRUE,,Go Home,39.89194698,-105.2622245,0.4,6133.7,393.7,TRUE,1,1,FALSE,FALSE,FALSE,FALSE,0,TRUE,FALSE,FALSE,Course Lock,98.4,,16.4,Calm,9,Android, 4.8.0,dronefo...-Mavic 2 Enterprise,276DFAP001US71,0K8HF9H01103JN,,161AFA863601QP,223.9,6830.5,83.3,46.5,9.2,0,224,dronefo...-Mavic 2 Enterprise,276DFAP001US71,0K8HF9H01103JN,,161AFA863601QP,,Android, 4.8.0,,,,,,
49,11/20/2018,57:57.3,0m 4.8s,4.8,39.89194724,-105.262223,18.7,18.7,18.7,6421,0,1.5,0,0.2,0,0.2,-9,0,0.1,-1,-54.2,305.8,P-GPS,Other,,16,5,TRUE,,Mavic 2 Enterprise,TRUE,FALSE,,Smart,RC,FALSE,TRUE,FALSE,,,TRUE,,FALSE,FALSE,FALSE,FALSE,FALSE,FALSE,FALSE,FALSE,FALSE,FALSE,0,Follow Yaw,0,0,-50.9,309.1,FALSE,FALSE,FALSE,FALSE,FALSE,TRUE,,TRUE,Card Too Slow,,,1024,1024,1684,1397,0,FALSE,FALSE,FALSE,FALSE,FALSE,0,FALSE,FALSE,FALSE,FALSE,85,,,,16.279,FALSE,4.102,4.103,4.098,4.08,0.023,FALSE,FALSE,,,,,0,0,1,15,10,10634.5,2726.81,,Idle,0,25,FALSE,10,TRUE,,Go Home,39.89194698,-105.2622245,0.5,6133.7,393.7,TRUE,1,1,FALSE,FALSE,FALSE,FALSE,0,TRUE,FALSE,FALSE,Course Lock,98.4,,16.4,Calm,9,Android, 4.8.0,dronefo...-Mavic 2 Enterprise,276DFAP001US71,0K8HF9H01103JN,,161AFA863601QP,223.9,6830.5,83.3,46.5,9.2,0,224,dronefo...-Mavic 2 Enterprise,276DFAP001US71,0K8HF9H01103JN,,161AFA863601QP,,Android, 4.8.0,,,,"To take off in non-P mode, toggle Flight Mode Switch to another mode and then toggle it back.",,
50,11/20/2018,57:57.4,0m 4.9s,4.9,39.89194731,-105.2622229,20.3,20.3,20,6423,0,1.5,0,0.2,0,0.2,-9,0,0.2,-0.9,-53.3,306.7,P-GPS,Other,,16,5,TRUE,,Mavic 2 Enterprise,TRUE,FALSE,,Smart,RC,FALSE,TRUE,FALSE,,,TRUE,,FALSE,FALSE,FALSE,FALSE,FALSE,FALSE,FALSE,FALSE,FALSE,FALSE,0,Follow Yaw,0,0,-49.5,310.5,FALSE,FALSE,FALSE,FALSE,FALSE,TRUE,,TRUE,Card Too Slow,,,1024,1024,1684,1442,0,FALSE,FALSE,FALSE,FALSE,FALSE,0,FALSE,FALSE,FALSE,FALSE,85,,,,16.279,FALSE,4.102,4.103,4.098,4.08,0.023,FALSE,FALSE,,,,,0,0,1,15,10,10634.5,2726.81,,Idle,0,25,FALSE,10,TRUE,,Go Home,39.89194698,-105.2622245,0.5,6133.7,393.7,TRUE,1,1,FALSE,FALSE,FALSE,FALSE,0,TRUE,FALSE,FALSE,Course Lock,98.4,,16.4,Calm,9,Android, 4.8.0,dronefo...-Mavic 2 Enterprise,276DFAP001US71,0K8HF9H01103JN,,161AFA863601QP,223.9,6830.5,83.3,46.5,9.2,0,224,dronefo...-Mavic 2 Enterprise,276DFAP001US71,0K8HF9H01103JN,,161AFA863601QP,,Android, 4.8.0,,,,,,
51,11/20/2018,57:57.4,0m 5.0s,5,39.89194725,-105.2622229,21.7,21.7,21.3,6424,0,1.5,0,0.2,0,0.2,-9,0,0.1,-0.8,-51.8,308.2,P-GPS,Other,,16,5,TRUE,,Mavic 2 Enterprise,TRUE,FALSE,,Smart,RC,FALSE,TRUE,FALSE,,,TRUE,,FALSE,FALSE,FALSE,FALSE,FALSE,FALSE,FALSE,FALSE,FALSE,FALSE,0,Follow Yaw,0,0,-47.6,312.4,FALSE,FALSE,FALSE,FALSE,FALSE,TRUE,,TRUE,Card Too Slow,,,1024,1024,1684,1478,0,FALSE,FALSE,FALSE,FALSE,FALSE,0,FALSE,FALSE,FALSE,FALSE,85,,,,16.233,FALSE,4.06,4.065,4.062,4.046,0.023,FALSE,FALSE,,,,,0,0,1,15,10,10634.5,2726.81,,Idle,0,25,FALSE,10,TRUE,,Go Home,39.89194698,-105.2622245,0.4,6133.7,393.7,TRUE,1,1,FALSE,FALSE,FALSE,FALSE,0,TRUE,FALSE,FALSE,Course Lock,98.4,,16.4,Calm,9,Android, 4.8.0,dronefo...-Mavic 2 Enterprise,276DFAP001US71,0K8HF9H01103JN,,161AFA863601QP,223.9,6830.5,83.3,46.5,9.2,0,224,dronefo...-Mavic 2 Enterprise,276DFAP001US71,0K8HF9H01103JN,,161AFA863601QP,,Android, 4.8.0,,,,,,
52,11/20/2018,57:57.6,0m 5.1s,5.1,39.89194733,-105.262223,23,23,22.6,6425,0,1.5,0,0.2,0,0.2,-9,0,0,-0.7,-49.9,310.1,P-GPS,Other,,16,5,TRUE,,Mavic 2 Enterprise,TRUE,FALSE,,Smart,RC,FALSE,TRUE,FALSE,,,TRUE,,FALSE,FALSE,FALSE,FALSE,FALSE,FALSE,FALSE,FALSE,FALSE,FALSE,0,Follow Yaw,0,0,-45.3,314.7,FALSE,FALSE,FALSE,FALSE,FALSE,TRUE,,TRUE,Card Too Slow,,,1024,1024,1684,1566,0,FALSE,FALSE,FALSE,FALSE,FALSE,0,FALSE,FALSE,FALSE,FALSE,85,,,,16.233,FALSE,4.06,4.065,4.062,4.046,0.023,FALSE,FALSE,,,,,0,0,1,15,10,10634.5,2726.81,,Idle,0,25,FALSE,10,TRUE,,Go Home,39.89194698,-105.2622245,0.4,6133.7,393.7,TRUE,1,1,FALSE,FALSE,FALSE,FALSE,0,TRUE,FALSE,FALSE,Course Lock,98.4,,16.4,Calm,9,Android, 4.8.0,dronefo...-Mavic 2 Enterprise,276DFAP001US71,0K8HF9H01103JN,,161AFA863601QP,223.9,6830.5,83.3,46.5,9.2,0,224,dronefo...-Mavic 2 Enterprise,276DFAP001US71,0K8HF9H01103JN,,161AFA863601QP,,Android, 4.8.0,,,,,,
53,11/20/2018,57:57.7,0m 5.2s,5.2,39.89194729,-105.262223,24.3,24.3,24,6427,0,1.5,0,0.2,0,0.2,-9,0,0,-0.7,-47.2,312.8,P-GPS,Other,,16,5,TRUE,,Mavic 2 Enterprise,TRUE,FALSE,,Smart,RC,FALSE,TRUE,FALSE,,,TRUE,,FALSE,FALSE,FALSE,FALSE,FALSE,FALSE,FALSE,FALSE,FALSE,FALSE,0,Follow Yaw,0,0,-41.8,318.2,FALSE,FALSE,FALSE,FALSE,FALSE,TRUE,,TRUE,Card Too Slow,,,1024,1024,1671,1682,0,FALSE,FALSE,FALSE,FALSE,FALSE,0,FALSE,FALSE,FALSE,FALSE,85,,,,16.233,FALSE,4.06,4.065,4.062,4.046,0.023,FALSE,FALSE,,,,,0,0,1,15,10,10634.5,2726.81,,Idle,0,25,FALSE,10,TRUE,,Go Home,39.89194698,-105.2622245,0.4,6133.7,393.7,TRUE,1,1,FALSE,FALSE,FALSE,FALSE,0,TRUE,FALSE,FALSE,Course Lock,98.4,,16.4,Calm,9,Android, 4.8.0,dronefo...-Mavic 2 Enterprise,276DFAP001US71,0K8HF9H01103JN,,161AFA863601QP,223.9,6830.5,83.3,46.5,9.2,0,224,dronefo...-Mavic 2 Enterprise,276DFAP001US71,0K8HF9H01103JN,,161AFA863601QP,,Android, 4.8.0,,,,,,
54,11/20/2018,57:57.8,0m 5.3s,5.3,39.89194736,-105.262223,25.6,25.6,25.3,6428,0,1.5,0,0.2,0,0.2,-9,0,0,-0.7,-43.3,316.7,P-GPS,Other,,16,5,TRUE,,Mavic 2 Enterprise,TRUE,FALSE,,Smart,RC,FALSE,TRUE,FALSE,,,TRUE,,FALSE,FALSE,FALSE,FALSE,FALSE,FALSE,FALSE,FALSE,FALSE,FALSE,0,Follow Yaw,0,0,-36.6,323.4,FALSE,FALSE,FALSE,FALSE,FALSE,TRUE,,TRUE,Card Too Slow,,,1024,1024,1623,1684,0,FALSE,FALSE,FALSE,FALSE,FALSE,0,FALSE,FALSE,FALSE,FALSE,85,,,,16.233,FALSE,4.06,4.065,4.062,4.046,0.023,FALSE,FALSE,,,,,0,0,1,15,10,10634.5,2726.81,,Idle,0,25,FALSE,10,TRUE,,Go Home,39.89194698,-105.2622245,0.4,6133.7,393.7,TRUE,1,1,FALSE,FALSE,FALSE,FALSE,0,TRUE,FALSE,FALSE,Course Lock,98.4,,16.4,Calm,9,Android, 4.8.0,dronefo...-Mavic 2 Enterprise,276DFAP001US71,0K8HF9H01103JN,,161AFA863601QP,223.9,6830.5,83.3,46.5,9.2,0,224,dronefo...-Mavic 2 Enterprise,276DFAP001US71,0K8HF9H01103JN,,161AFA863601QP,,Android, 4.8.0,,,,,,
55,11/20/2018,57:57.9,0m 5.4s,5.4,39.89194734,-105.262223,26.9,26.9,26.6,6429,0,1.5,0,0.2,0,0.2,-8.7,0,0,-0.9,-37.9,322.1,P-GPS,Other,,16,5,TRUE,,Mavic 2 Enterprise,TRUE,FALSE,,Smart,RC,FALSE,TRUE,FALSE,,,TRUE,,FALSE,FALSE,FALSE,FALSE,FALSE,FALSE,FALSE,FALSE,FALSE,FALSE,0,Follow Yaw,0,0,-30.7,329.3,FALSE,FALSE,FALSE,FALSE,FALSE,TRUE,,TRUE,Card Too Slow,,,1024,1024,1366,1684,0,FALSE,FALSE,FALSE,FALSE,FALSE,0,FALSE,FALSE,FALSE,FALSE,85,,,,16.233,FALSE,4.06,4.065,4.062,4.046,0.023,FALSE,FALSE,,,,,0,0,1,15,10,10634.5,2726.81,,Idle,0,25,FALSE,10,TRUE,,Go Home,39.89194698,-105.2622245,0.5,6133.7,393.7,TRUE,1,1,FALSE,FALSE,FALSE,FALSE,0,TRUE,FALSE,FALSE,Course Lock,98.4,,16.4,Calm,9,Android, 4.8.0,dronefo...-Mavic 2 Enterprise,276DFAP001US71,0K8HF9H01103JN,,161AFA863601QP,223.9,6830.5,83.3,46.5,9.2,0,224,dronefo...-Mavic 2 Enterprise,276DFAP001US71,0K8HF9H01103JN,,161AFA863601QP,,Android, 4.8.0,,,,,,
56,11/20/2018,57:57.9,0m 5.5s,5.5,39.89194724,-105.262223,28.2,28.2,27.2,6430,1.1,1.5,0,0.2,0,0.2,-8.3,0,0,-1.2,-32.2,327.8,P-GPS,Other,,16,5,TRUE,,Mavic 2 Enterprise,FALSE,FALSE,,Smart,RC,FALSE,TRUE,FALSE,,,TRUE,,FALSE,FALSE,FALSE,FALSE,FALSE,FALSE,FALSE,FALSE,FALSE,FALSE,0,Follow Yaw,0,0,-24.7,335.3,FALSE,FALSE,FALSE,FALSE,FALSE,TRUE,,TRUE,Card Too Slow,,,1024,1024,1024,1429,0,FALSE,FALSE,FALSE,FALSE,FALSE,0,FALSE,FALSE,FALSE,FALSE,85,,,,16.233,FALSE,4.06,4.065,4.062,4.046,0.023,FALSE,FALSE,,,,,0,0,1,15,10,10634.5,2726.81,,Idle,0,25,FALSE,10,TRUE,,Go Home,39.89194698,-105.2622245,0.5,6133.7,393.7,TRUE,1,1,FALSE,FALSE,FALSE,FALSE,0,TRUE,FALSE,FALSE,Course Lock,98.4,,16.4,Calm,9,Android, 4.8.0,dronefo...-Mavic 2 Enterprise,276DFAP001US71,0K8HF9H01103JN,,161AFA863601QP,223.9,6830.5,83.3,46.5,9.2,0,224,dronefo...-Mavic 2 Enterprise,276DFAP001US71,0K8HF9H01103JN,,161AFA863601QP,,Android, 4.8.0,,,,,,
57,11/20/2018,57:58.0,0m 5.6s,5.6,39.89194721,-105.262223,29.2,29.2,27.2,6431,1.1,1.5,0,0.2,0,0.2,-7.6,0,0.1,-1.1,-27,333,P-GPS,Other,,16,5,TRUE,,Mavic 2 Enterprise,FALSE,FALSE,,Smart,RC,FALSE,TRUE,FALSE,,,TRUE,,FALSE,FALSE,FALSE,FALSE,FALSE,FALSE,FALSE,FALSE,FALSE,FALSE,0,Follow Yaw,0,0,-21.2,338.8,FALSE,FALSE,FALSE,FALSE,FALSE,TRUE,,TRUE,Card Too Slow,,,1024,1024,1024,1024,0,FALSE,FALSE,FALSE,FALSE,FALSE,0,FALSE,FALSE,FALSE,FALSE,85,,,,16.311,FALSE,4.06,4.065,4.062,4.046,0.023,FALSE,FALSE,,,,,0,0,3,15,10,15032.3,3854.44,,Idle,0,25,FALSE,10,TRUE,,Go Home,39.89194698,-105.2622245,0.5,6133.7,393.7,TRUE,1,1,FALSE,FALSE,FALSE,FALSE,0,TRUE,FALSE,FALSE,Course Lock,98.4,,16.4,Calm,9,Android, 4.8.0,dronefo...-Mavic 2 Enterprise,276DFAP001US71,0K8HF9H01103JN,,161AFA863601QP,223.9,6830.5,83.3,46.5,9.2,0,224,dronefo...-Mavic 2 Enterprise,276DFAP001US71,0K8HF9H01103JN,,161AFA863601QP,,Android, 4.8.0,,,,,,
58,11/20/2018,57:58.1,0m 5.7s,5.7,39.89194723,-105.2622229,30.5,30.5,27.2,6433,1.1,1.5,0,0.2,0,0.2,-6.9,0,-0.1,-0.9,-25.2,334.8,P-GPS,Other,,16,5,TRUE,,Mavic 2 Enterprise,FALSE,FALSE,,Smart,RC,FALSE,TRUE,FALSE,,,TRUE,,FALSE,FALSE,FALSE,FALSE,FALSE,FALSE,FALSE,FALSE,FALSE,FALSE,0,Follow Yaw,0,0,-21.1,338.9,FALSE,FALSE,FALSE,FALSE,FALSE,TRUE,,TRUE,Card Too Slow,,,1024,1024,1024,1024,0,FALSE,FALSE,FALSE,FALSE,FALSE,0,FALSE,FALSE,FALSE,FALSE,85,,,,16.311,FALSE,4.06,4.065,4.062,4.046,0.023,FALSE,FALSE,,,,,0,0,3,15,10,15032.3,3854.44,,Idle,0,25,FALSE,10,TRUE,,Go Home,39.89194698,-105.2622245,0.4,6133.7,393.7,TRUE,1,1,FALSE,FALSE,FALSE,FALSE,0,TRUE,FALSE,FALSE,Course Lock,98.4,,16.4,Calm,9,Android, 4.8.0,dronefo...-Mavic 2 Enterprise,276DFAP001US71,0K8HF9H01103JN,,161AFA863601QP,223.9,6830.5,83.3,46.5,9.2,0,224,dronefo...-Mavic 2 Enterprise,276DFAP001US71,0K8HF9H01103JN,,161AFA863601QP,,Android, 4.8.0,,,,,,
59,11/20/2018,57:58.2,0m 5.8s,5.8,39.89194721,-105.2622229,31.5,31.5,27.2,6434,0,1.5,0,0.2,0,0.2,-6,0,0.1,-1.2,-24.5,335.5,P-GPS,Other,,16,5,TRUE,,Mavic 2 Enterprise,FALSE,FALSE,,Smart,RC,FALSE,TRUE,FALSE,,,TRUE,,FALSE,FALSE,FALSE,FALSE,FALSE,FALSE,FALSE,FALSE,FALSE,FALSE,0,Follow Yaw,0,0,-21.1,338.9,FALSE,FALSE,FALSE,FALSE,FALSE,TRUE,,TRUE,Card Too Slow,,,1024,1024,1024,1024,0,FALSE,FALSE,FALSE,FALSE,FALSE,0,FALSE,FALSE,FALSE,FALSE,85,,,,16.311,FALSE,4.06,4.065,4.062,4.046,0.023,FALSE,FALSE,,,,,0,0,3,15,10,15032.3,3854.44,,Idle,0,25,FALSE,10,TRUE,,Go Home,39.89194698,-105.2622245,0.5,6133.7,393.7,TRUE,1,1,FALSE,FALSE,FALSE,FALSE,0,TRUE,FALSE,FALSE,Course Lock,98.4,,16.4,Calm,9,Android, 4.8.0,dronefo...-Mavic 2 Enterprise,276DFAP001US71,0K8HF9H01103JN,,161AFA863601QP,223.9,6830.5,83.3,46.5,9.2,0,224,dronefo...-Mavic 2 Enterprise,276DFAP001US71,0K8HF9H01103JN,,161AFA863601QP,,Android, 4.8.0,,,,,,
60,11/20/2018,57:58.3,0m 5.9s,5.9,39.89194692,-105.2622227,32.2,32.2,27.2,6434,1.1,1.5,0,0.2,0,0.2,-5.1,0,0.2,-1.3,-24.2,335.8,P-GPS,Other,,16,5,TRUE,,Mavic 2 Enterprise,FALSE,FALSE,,Smart,RC,FALSE,TRUE,FALSE,,,TRUE,,FALSE,FALSE,FALSE,FALSE,FALSE,FALSE,FALSE,FALSE,FALSE,FALSE,0,Follow Yaw,0,0,-21.1,338.9,FALSE,FALSE,FALSE,FALSE,FALSE,TRUE,,TRUE,Card Too Slow,,,1024,1024,1024,1024,0,FALSE,FALSE,FALSE,FALSE,FALSE,0,FALSE,FALSE,FALSE,FALSE,85,,,,16.311,FALSE,4.06,4.065,4.062,4.046,0.023,FALSE,FALSE,,,,,0,0,3,15,10,15032.3,3854.44,,Idle,0,25,FALSE,10,TRUE,,Go Home,39.89194698,-105.2622245,0.5,6133.7,393.7,TRUE,1,1,FALSE,FALSE,FALSE,FALSE,0,TRUE,FALSE,FALSE,Course Lock,98.4,,16.4,Calm,9,Android, 4.8.0,dronefo...-Mavic 2 Enterprise,276DFAP001US71,0K8HF9H01103JN,,161AFA863601QP,223.9,6830.5,83.3,46.5,9.2,0,224,dronefo...-Mavic 2 Enterprise,276DFAP001US71,0K8HF9H01103JN,,161AFA863601QP,,Android, 4.8.0,,,,,,
61,11/20/2018,57:58.4,0m 6.0s,6,39.89194688,-105.2622227,33.1,33.1,27.2,6435,0,1.5,0,0.2,0,0.2,-4.3,0,0.3,-1.4,-24,336,P-GPS,Other,,16,5,TRUE,,Mavic 2 Enterprise,FALSE,FALSE,,Smart,RC,FALSE,TRUE,FALSE,,,TRUE,,FALSE,FALSE,FALSE,FALSE,FALSE,FALSE,FALSE,FALSE,FALSE,FALSE,0,Follow Yaw,0,0,-21.1,338.9,FALSE,FALSE,FALSE,FALSE,FALSE,TRUE,,TRUE,Card Too Slow,,,1024,1024,1024,1024,0,FALSE,FALSE,FALSE,FALSE,FALSE,0,FALSE,FALSE,FALSE,FALSE,85,,,,16.314,FALSE,4.082,4.086,4.082,4.064,0.023,FALSE,FALSE,,,,,0,0,3,15,10,15032.3,3854.44,,Idle,0,25,FALSE,10,TRUE,,Go Home,39.89194698,-105.2622245,0.6,6133.7,393.7,TRUE,1,1,FALSE,FALSE,FALSE,FALSE,0,TRUE,FALSE,FALSE,Course Lock,98.4,,16.4,Calm,9,Android, 4.8.0,dronefo...-Mavic 2 Enterprise,276DFAP001US71,0K8HF9H01103JN,,161AFA863601QP,223.9,6830.5,83.3,46.5,9.2,0,224,dronefo...-Mavic 2 Enterprise,276DFAP001US71,0K8HF9H01103JN,,161AFA863601QP,,Android, 4.8.0,,,,,,
62,11/20/2018,57:58.5,0m 6.1s,6.1,39.8919468,-105.2622221,33.5,33.5,27.2,6436,1.1,1.5,0,0.2,0,0.2,-3.1,0,0.3,-1.5,-23.9,336.1,P-GPS,Other,,16,5,TRUE,,Mavic 2 Enterprise,FALSE,FALSE,,Smart,RC,FALSE,TRUE,FALSE,,,TRUE,,FALSE,FALSE,FALSE,FALSE,FALSE,FALSE,FALSE,FALSE,FALSE,FALSE,0,Follow Yaw,0,0,-21.1,338.9,FALSE,FALSE,FALSE,FALSE,FALSE,TRUE,,TRUE,Card Too Slow,,,1024,1024,1024,1024,0,FALSE,FALSE,FALSE,FALSE,FALSE,0,FALSE,FALSE,FALSE,FALSE,85,,,,16.314,FALSE,4.082,4.086,4.082,4.064,0.023,FALSE,FALSE,,,,,0,0,3,15,10,15032.3,3854.44,,Idle,0,25,FALSE,10,TRUE,,Go Home,39.89194698,-105.2622245,0.6,6133.7,393.7,TRUE,1,1,FALSE,FALSE,FALSE,FALSE,0,TRUE,FALSE,FALSE,Course Lock,98.4,,16.4,Calm,9,Android, 4.8.0,dronefo...-Mavic 2 Enterprise,276DFAP001US71,0K8HF9H01103JN,,161AFA863601QP,223.9,6830.5,83.3,46.5,9.2,0,224,dronefo...-Mavic 2 Enterprise,276DFAP001US71,0K8HF9H01103JN,,161AFA863601QP,,Android, 4.8.0,,,,,,
